{
  "type": "FeatureCollection",
  "features": [
    {
      "type": "Feature",
      "geometry": {
        "type": "Point",
        "coordinates": [
          121.4618415,
          25.0114095
        ]
      },
      "properties": {
        "年": "114",
        "月": 4.0,
        "地址": "板橋區",
        "緯度": 25.0114095,
        "經度": 121.4618415,
        "里數": 126,
        "鄰數": 2515,
        "戶數": 236215,
        "男": 266819,
        "女": 285627,
        "合計": 552446,
        "緯度.1": 25.0114095,
        "經度.1": 121.4618415
      }
    },
    {
      "type": "Feature",
      "geometry": {
        "type": "Point",
        "coordinates": [
          121.4867114,
          25.0614534
        ]
      },
      "properties": {
        "年": "114",
        "月": 4.0,
        "地址": "三重區",
        "緯度": 25.0614534,
        "經度": 121.4867114,
        "里數": 119,
        "鄰數": 2564,
        "戶數": 170069,
        "男": 186790,
        "女": 196349,
        "合計": 383139,
        "緯度.1": 25.0614534,
        "經度.1": 121.4867114
      }
    },
    {
      "type": "Feature",
      "geometry": {
        "type": "Point",
        "coordinates": [
          121.4853103,
          24.9962178
        ]
      },
      "properties": {
        "年": "114",
        "月": 4.0,
        "地址": "中和區",
        "緯度": 24.9962178,
        "經度": 121.4853103,
        "里數": 93,
        "鄰數": 2998,
        "戶數": 180891,
        "男": 194629,
        "女": 210795,
        "合計": 405424,
        "緯度.1": 24.9962178,
        "經度.1": 121.4853103
      }
    },
    {
      "type": "Feature",
      "geometry": {
        "type": "Point",
        "coordinates": [
          121.5145353,
          25.0103251
        ]
      },
      "properties": {
        "年": "114",
        "月": 4.0,
        "地址": "永和區",
        "緯度": 25.0103251,
        "經度": 121.5145353,
        "里數": 62,
        "鄰數": 1249,
        "戶數": 95328,
        "男": 100251,
        "女": 112652,
        "合計": 212903,
        "緯度.1": 25.0103251,
        "經度.1": 121.5145353
      }
    },
    {
      "type": "Feature",
      "geometry": {
        "type": "Point",
        "coordinates": [
          121.4178347,
          25.0265985
        ]
      },
      "properties": {
        "年": "114",
        "月": 4.0,
        "地址": "新莊區",
        "緯度": 25.0265985,
        "經度": 121.4178347,
        "里數": 84,
        "鄰數": 1842,
        "戶數": 175462,
        "男": 204902,
        "女": 217901,
        "合計": 422803,
        "緯度.1": 25.0265985,
        "經度.1": 121.4178347
      }
    },
    {
      "type": "Feature",
      "geometry": {
        "type": "Point",
        "coordinates": [
          121.5394822,
          24.978282
        ]
      },
      "properties": {
        "年": "114",
        "月": 4.0,
        "地址": "新店區",
        "緯度": 24.978282,
        "經度": 121.5394822,
        "里數": 69,
        "鄰數": 1482,
        "戶數": 141930,
        "男": 146270,
        "女": 160629,
        "合計": 306899,
        "緯度.1": 24.978282,
        "經度.1": 121.5394822
      }
    },
    {
      "type": "Feature",
      "geometry": {
        "type": "Point",
        "coordinates": [
          121.438034,
          24.968371
        ]
      },
      "properties": {
        "年": "114",
        "月": 4.0,
        "地址": "土城區",
        "緯度": 24.968371,
        "經度": 121.438034,
        "里數": 47,
        "鄰數": 1236,
        "戶數": 99263,
        "男": 117650,
        "女": 123449,
        "合計": 241099,
        "緯度.1": 24.968371,
        "經度.1": 121.438034
      }
    },
    {
      "type": "Feature",
      "geometry": {
        "type": "Point",
        "coordinates": [
          121.4715241,
          25.0868908
        ]
      },
      "properties": {
        "年": "114",
        "月": 4.0,
        "地址": "蘆洲區",
        "緯度": 25.0868908,
        "經度": 121.4715241,
        "里數": 38,
        "鄰數": 727,
        "戶數": 78168,
        "男": 96357,
        "女": 101159,
        "合計": 197516,
        "緯度.1": 25.0868908,
        "經度.1": 121.4715241
      }
    },
    {
      "type": "Feature",
      "geometry": {
        "type": "Point",
        "coordinates": [
          121.4198606,
          24.9815605
        ]
      },
      "properties": {
        "年": "114",
        "月": 4.0,
        "地址": "樹林區",
        "緯度": 24.9815605,
        "經度": 121.4198606,
        "里數": 42,
        "鄰數": 1039,
        "戶數": 71207,
        "男": 88365,
        "女": 89817,
        "合計": 178182,
        "緯度.1": 24.9815605,
        "經度.1": 121.4198606
      }
    },
    {
      "type": "Feature",
      "geometry": {
        "type": "Point",
        "coordinates": [
          121.3427262,
          24.9614967
        ]
      },
      "properties": {
        "年": "114",
        "月": 4.0,
        "地址": "鶯歌區",
        "緯度": 24.9614967,
        "經度": 121.3427262,
        "里數": 20,
        "鄰數": 434,
        "戶數": 36559,
        "男": 44703,
        "女": 44957,
        "合計": 89660,
        "緯度.1": 24.9614967,
        "經度.1": 121.3427262
      }
    },
    {
      "type": "Feature",
      "geometry": {
        "type": "Point",
        "coordinates": [
          121.3744903,
          24.9358605
        ]
      },
      "properties": {
        "年": "114",
        "月": 4.0,
        "地址": "三峽區",
        "緯度": 24.9358605,
        "經度": 121.3744903,
        "里數": 28,
        "鄰數": 608,
        "戶數": 48215,
        "男": 57374,
        "女": 58047,
        "合計": 115421,
        "緯度.1": 24.9358605,
        "經度.1": 121.3744903
      }
    },
    {
      "type": "Feature",
      "geometry": {
        "type": "Point",
        "coordinates": [
          121.4433706,
          25.1719805
        ]
      },
      "properties": {
        "年": "114",
        "月": 4.0,
        "地址": "淡水區",
        "緯度": 25.1719805,
        "經度": 121.4433706,
        "里數": 42,
        "鄰數": 703,
        "戶數": 102179,
        "男": 96890,
        "女": 107439,
        "合計": 204329,
        "緯度.1": 25.1719805,
        "經度.1": 121.4433706
      }
    },
    {
      "type": "Feature",
      "geometry": {
        "type": "Point",
        "coordinates": [
          121.6397184,
          25.0616059
        ]
      },
      "properties": {
        "年": "114",
        "月": 4.0,
        "地址": "汐止區",
        "緯度": 25.0616059,
        "經度": 121.6397184,
        "里數": 50,
        "鄰數": 1141,
        "戶數": 100741,
        "男": 102765,
        "女": 109344,
        "合計": 212109,
        "緯度.1": 25.0616059,
        "經度.1": 121.6397184
      }
    },
    {
      "type": "Feature",
      "geometry": {
        "type": "Point",
        "coordinates": [
          121.822098,
          25.103052
        ]
      },
      "properties": {
        "年": "114",
        "月": 4.0,
        "地址": "瑞芳區",
        "緯度": 25.103052,
        "經度": 121.822098,
        "里數": 34,
        "鄰數": 426,
        "戶數": 16253,
        "男": 18203,
        "女": 17879,
        "合計": 36082,
        "緯度.1": 25.103052,
        "經度.1": 121.822098
      }
    },
    {
      "type": "Feature",
      "geometry": {
        "type": "Point",
        "coordinates": [
          121.4386586,
          25.0848317
        ]
      },
      "properties": {
        "年": "114",
        "月": 4.0,
        "地址": "五股區",
        "緯度": 25.0848317,
        "經度": 121.4386586,
        "里數": 20,
        "鄰數": 515,
        "戶數": 40265,
        "男": 46752,
        "女": 47383,
        "合計": 94135,
        "緯度.1": 25.0848317,
        "經度.1": 121.4386586
      }
    },
    {
      "type": "Feature",
      "geometry": {
        "type": "Point",
        "coordinates": [
          121.4327919,
          25.0581641
        ]
      },
      "properties": {
        "年": "114",
        "月": 4.0,
        "地址": "泰山區",
        "緯度": 25.0581641,
        "經度": 121.4327919,
        "里數": 17,
        "鄰數": 466,
        "戶數": 31736,
        "男": 38180,
        "女": 39615,
        "合計": 77795,
        "緯度.1": 25.0581641,
        "經度.1": 121.4327919
      }
    },
    {
      "type": "Feature",
      "geometry": {
        "type": "Point",
        "coordinates": [
          121.3881378,
          25.0790108
        ]
      },
      "properties": {
        "年": "114",
        "月": 4.0,
        "地址": "林口區",
        "緯度": 25.0790108,
        "經度": 121.3881378,
        "里數": 17,
        "鄰數": 443,
        "戶數": 59548,
        "男": 66365,
        "女": 70858,
        "合計": 137223,
        "緯度.1": 25.0790108,
        "經度.1": 121.3881378
      }
    },
    {
      "type": "Feature",
      "geometry": {
        "type": "Point",
        "coordinates": [
          121.3983016,
          25.1443896
        ]
      },
      "properties": {
        "年": "114",
        "月": 4.0,
        "地址": "八里區",
        "緯度": 25.1443896,
        "經度": 121.3983016,
        "里數": 10,
        "鄰數": 195,
        "戶數": 19337,
        "男": 21322,
        "女": 21733,
        "合計": 43055,
        "緯度.1": 25.1443896,
        "經度.1": 121.3983016
      }
    },
    {
      "type": "Feature",
      "geometry": {
        "type": "Point",
        "coordinates": [
          121.6169002,
          25.0033792
        ]
      },
      "properties": {
        "年": "114",
        "月": 4.0,
        "地址": "深坑區",
        "緯度": 25.0033792,
        "經度": 121.6169002,
        "里數": 8,
        "鄰數": 239,
        "戶數": 10565,
        "男": 11772,
        "女": 11950,
        "合計": 23722,
        "緯度.1": 25.0033792,
        "經度.1": 121.6169002
      }
    },
    {
      "type": "Feature",
      "geometry": {
        "type": "Point",
        "coordinates": [
          121.6452827,
          25.0098662
        ]
      },
      "properties": {
        "年": "114",
        "月": 4.0,
        "地址": "石碇區",
        "緯度": 25.0098662,
        "經度": 121.6452827,
        "里數": 12,
        "鄰數": 107,
        "戶數": 3321,
        "男": 3791,
        "女": 3151,
        "合計": 6942,
        "緯度.1": 25.0098662,
        "經度.1": 121.6452827
      }
    },
    {
      "type": "Feature",
      "geometry": {
        "type": "Point",
        "coordinates": [
          121.7107613,
          24.9350844
        ]
      },
      "properties": {
        "年": "114",
        "月": 4.0,
        "地址": "坪林區",
        "緯度": 24.9350844,
        "經度": 121.7107613,
        "里數": 7,
        "鄰數": 78,
        "戶數": 2564,
        "男": 3355,
        "女": 2899,
        "合計": 6254,
        "緯度.1": 24.9350844,
        "經度.1": 121.7107613
      }
    },
    {
      "type": "Feature",
      "geometry": {
        "type": "Point",
        "coordinates": [
          121.5024341,
          25.2593452
        ]
      },
      "properties": {
        "年": "114",
        "月": 4.0,
        "地址": "三芝區",
        "緯度": 25.2593452,
        "經度": 121.5024341,
        "里數": 13,
        "鄰數": 254,
        "戶數": 10501,
        "男": 11399,
        "女": 10741,
        "合計": 22140,
        "緯度.1": 25.2593452,
        "經度.1": 121.5024341
      }
    },
    {
      "type": "Feature",
      "geometry": {
        "type": "Point",
        "coordinates": [
          121.5671383,
          25.2908277
        ]
      },
      "properties": {
        "年": "114",
        "月": 4.0,
        "地址": "石門區",
        "緯度": 25.2908277,
        "經度": 121.5671383,
        "里數": 9,
        "鄰數": 124,
        "戶數": 4260,
        "男": 5315,
        "女": 4869,
        "合計": 10184,
        "緯度.1": 25.2908277,
        "經度.1": 121.5671383
      }
    },
    {
      "type": "Feature",
      "geometry": {
        "type": "Point",
        "coordinates": [
          121.6367773,
          25.2223616
        ]
      },
      "properties": {
        "年": "114",
        "月": 4.0,
        "地址": "金山區",
        "緯度": 25.2223616,
        "經度": 121.6367773,
        "里數": 15,
        "鄰數": 201,
        "戶數": 7583,
        "男": 9825,
        "女": 10077,
        "合計": 19902,
        "緯度.1": 25.2223616,
        "經度.1": 121.6367773
      }
    },
    {
      "type": "Feature",
      "geometry": {
        "type": "Point",
        "coordinates": [
          121.6397184,
          25.1676024
        ]
      },
      "properties": {
        "年": "114",
        "月": 4.0,
        "地址": "萬里區",
        "緯度": 25.1676024,
        "經度": 121.6397184,
        "里數": 10,
        "鄰數": 186,
        "戶數": 7879,
        "男": 10132,
        "女": 10269,
        "合計": 20401,
        "緯度.1": 25.1676024,
        "經度.1": 121.6397184
      }
    },
    {
      "type": "Feature",
      "geometry": {
        "type": "Point",
        "coordinates": [
          121.7408654,
          25.0248314
        ]
      },
      "properties": {
        "年": "114",
        "月": 4.0,
        "地址": "平溪區",
        "緯度": 25.0248314,
        "經度": 121.7408654,
        "里數": 12,
        "鄰數": 120,
        "戶數": 2122,
        "男": 2238,
        "女": 1742,
        "合計": 3980,
        "緯度.1": 25.0248314,
        "經度.1": 121.7408654
      }
    },
    {
      "type": "Feature",
      "geometry": {
        "type": "Point",
        "coordinates": [
          121.822098,
          24.9971842
        ]
      },
      "properties": {
        "年": "114",
        "月": 4.0,
        "地址": "雙溪區",
        "緯度": 24.9971842,
        "經度": 121.822098,
        "里數": 12,
        "鄰數": 244,
        "戶數": 3548,
        "男": 4112,
        "女": 3427,
        "合計": 7539,
        "緯度.1": 24.9971842,
        "經度.1": 121.822098
      }
    },
    {
      "type": "Feature",
      "geometry": {
        "type": "Point",
        "coordinates": [
          121.9459786,
          25.0168762
        ]
      },
      "properties": {
        "年": "114",
        "月": 4.0,
        "地址": "貢寮區",
        "緯度": 25.0168762,
        "經度": 121.9459786,
        "里數": 11,
        "鄰數": 202,
        "戶數": 4268,
        "男": 5385,
        "女": 5224,
        "合計": 10609,
        "緯度.1": 25.0168762,
        "經度.1": 121.9459786
      }
    },
    {
      "type": "Feature",
      "geometry": {
        "type": "Point",
        "coordinates": [
          121.5497801,
          24.8663721
        ]
      },
      "properties": {
        "年": "114",
        "月": 4.0,
        "地址": "烏來區",
        "緯度": 24.8663721,
        "經度": 121.5497801,
        "里數": 5,
        "鄰數": 43,
        "戶數": 1914,
        "男": 3009,
        "女": 3163,
        "合計": 6172,
        "緯度.1": 24.8663721,
        "經度.1": 121.5497801
      }
    }
  ]
}