{
  "type": "FeatureCollection",
  "features": [
    {
      "type": "Feature",
      "geometry": {
        "type": "Point",
        "coordinates": [
          121.5493054,
          25.0556512
        ]
      },
      "properties": {
        "序號": 1,
        "行政區": "松山區",
        "院所名稱": "長庚醫療財團法人台北長庚紀念醫院",
        "地址": "臺北市松山區敦化北路199號",
        "緯度": 25.0556512,
        "經度": 121.5493054,
        "電話": "(02)27135211",
        "緯度.1": 25.0556512,
        "經度.1": 121.5493054,
        "district": "松山區"
      }
    },
    {
      "type": "Feature",
      "geometry": {
        "type": "Point",
        "coordinates": [
          121.5474831,
          25.0476829
        ]
      },
      "properties": {
        "序號": 2,
        "行政區": "松山區",
        "院所名稱": "基督復臨安息日會醫療財團法人臺安醫院",
        "地址": "臺北市松山區八德路二段424號",
        "緯度": 25.0476829,
        "經度": 121.5474831,
        "電話": "(02)27718151",
        "緯度.1": 25.0476829,
        "經度.1": 121.5474831,
        "district": "松山區"
      }
    },
    {
      "type": "Feature",
      "geometry": {
        "type": "Point",
        "coordinates": [
          121.5576579,
          25.0544026
        ]
      },
      "properties": {
        "序號": 3,
        "行政區": "松山區",
        "院所名稱": "三軍總醫院松山分院附設民眾診療服務處",
        "地址": "臺北市松山區健康路131號",
        "緯度": 25.0544026,
        "經度": 121.5576579,
        "電話": "(02)27642151",
        "緯度.1": 25.0544026,
        "經度.1": 121.5576579,
        "district": "松山區"
      }
    },
    {
      "type": "Feature",
      "geometry": {
        "type": "Point",
        "coordinates": [
          121.5575603,
          25.0499703
        ]
      },
      "properties": {
        "序號": 4,
        "行政區": "松山區",
        "院所名稱": "博仁綜合醫院",
        "地址": "臺北市松山區光復北路66號",
        "緯度": 25.0499703,
        "經度": 121.5575603,
        "電話": "(02)25786677",
        "緯度.1": 25.0499703,
        "經度.1": 121.5575603,
        "district": "松山區"
      }
    },
    {
      "type": "Feature",
      "geometry": {
        "type": "Point",
        "coordinates": [
          121.5773136,
          25.0496778
        ]
      },
      "properties": {
        "序號": 5,
        "行政區": "松山區",
        "院所名稱": "臺北市立聯合醫院附設松山門診部",
        "地址": "臺北市松山區八德路四段694號",
        "緯度": 25.0496778,
        "經度": 121.5773136,
        "電話": "(02)27653147",
        "緯度.1": 25.0496778,
        "經度.1": 121.5773136,
        "district": "松山區"
      }
    },
    {
      "type": "Feature",
      "geometry": {
        "type": "Point",
        "coordinates": [
          121.5531024,
          25.0565574
        ]
      },
      "properties": {
        "序號": 6,
        "行政區": "松山區",
        "院所名稱": "大家好診所",
        "地址": "臺北市松山區民生東路四段80巷11弄2號1樓",
        "緯度": 25.0565574,
        "經度": 121.5531024,
        "電話": "(02)27138815",
        "緯度.1": 25.0565574,
        "經度.1": 121.5531024,
        "district": "松山區"
      }
    },
    {
      "type": "Feature",
      "geometry": {
        "type": "Point",
        "coordinates": [
          121.544235,
          25.0510506
        ]
      },
      "properties": {
        "序號": 7,
        "行政區": "松山區",
        "院所名稱": "全煜耳鼻喉科診所",
        "地址": "臺北市松山區復興北路73號2樓",
        "緯度": 25.0510506,
        "經度": 121.544235,
        "電話": "(02)87729068",
        "緯度.1": 25.0510506,
        "經度.1": 121.544235,
        "district": "松山區"
      }
    },
    {
      "type": "Feature",
      "geometry": {
        "type": "Point",
        "coordinates": [
          121.5484626,
          25.053688
        ]
      },
      "properties": {
        "序號": 8,
        "行政區": "松山區",
        "院所名稱": "安兒康小兒專科診所",
        "地址": "臺北市松山區敦化北路118號1樓",
        "緯度": 25.053688,
        "經度": 121.5484626,
        "電話": "(02)77287688",
        "緯度.1": 25.053688,
        "經度.1": 121.5484626,
        "district": "松山區"
      }
    },
    {
      "type": "Feature",
      "geometry": {
        "type": "Point",
        "coordinates": [
          121.5643397,
          25.0524026
        ]
      },
      "properties": {
        "序號": 9,
        "行政區": "松山區",
        "院所名稱": "江崇萍小兒科診所",
        "地址": "臺北市松山區南京東路五段251巷24弄27號1樓",
        "緯度": 25.0524026,
        "經度": 121.5643397,
        "電話": "(02)27632260",
        "緯度.1": 25.0524026,
        "經度.1": 121.5643397,
        "district": "松山區"
      }
    },
    {
      "type": "Feature",
      "geometry": {
        "type": "Point",
        "coordinates": [
          121.5571206,
          25.0482731
        ]
      },
      "properties": {
        "序號": 10,
        "行政區": "松山區",
        "院所名稱": "佑家診所",
        "地址": "臺北市松山區八德路三段233號",
        "緯度": 25.0482731,
        "經度": 121.5571206,
        "電話": "(02)25785658",
        "緯度.1": 25.0482731,
        "經度.1": 121.5571206,
        "district": "松山區"
      }
    },
    {
      "type": "Feature",
      "geometry": {
        "type": "Point",
        "coordinates": [
          121.5617442,
          25.05857
        ]
      },
      "properties": {
        "序號": 11,
        "行政區": "松山區",
        "院所名稱": "吳慶南內科診所",
        "地址": "臺北市松山區民生東路五段138號",
        "緯度": 25.05857,
        "經度": 121.5617442,
        "電話": "(02)27659566",
        "緯度.1": 25.05857,
        "經度.1": 121.5617442,
        "district": "松山區"
      }
    },
    {
      "type": "Feature",
      "geometry": {
        "type": "Point",
        "coordinates": [
          121.5561799,
          25.0481627
        ]
      },
      "properties": {
        "序號": 12,
        "行政區": "松山區",
        "院所名稱": "車參薇小兒科診所",
        "地址": "臺北市松山區八德路三段195號１樓",
        "緯度": 25.0481627,
        "經度": 121.5561799,
        "電話": "(02)25770101",
        "緯度.1": 25.0481627,
        "經度.1": 121.5561799,
        "district": "松山區"
      }
    },
    {
      "type": "Feature",
      "geometry": {
        "type": "Point",
        "coordinates": [
          121.565833,
          25.0525083
        ]
      },
      "properties": {
        "序號": 13,
        "行政區": "松山區",
        "院所名稱": "林忠志診所",
        "地址": "臺北市松山區南京東路五段291巷20弄3-3號",
        "緯度": 25.0525083,
        "經度": 121.565833,
        "電話": "(02)27689577",
        "緯度.1": 25.0525083,
        "經度.1": 121.565833,
        "district": "松山區"
      }
    },
    {
      "type": "Feature",
      "geometry": {
        "type": "Point",
        "coordinates": [
          121.553404,
          25.046802
        ]
      },
      "properties": {
        "序號": 14,
        "行政區": "松山區",
        "院所名稱": "邱楠超診所",
        "地址": "臺北市松山區延吉街20號1樓",
        "緯度": 25.046802,
        "經度": 121.553404,
        "電話": "(02)25702296",
        "緯度.1": 25.046802,
        "經度.1": 121.553404,
        "district": "松山區"
      }
    },
    {
      "type": "Feature",
      "geometry": {
        "type": "Point",
        "coordinates": [
          121.565097,
          25.0588811
        ]
      },
      "properties": {
        "序號": 15,
        "行政區": "松山區",
        "院所名稱": "宥全診所",
        "地址": "臺北市松山區民生東路五段216號1樓",
        "緯度": 25.0588811,
        "經度": 121.565097,
        "電話": "(02)27678225",
        "緯度.1": 25.0588811,
        "經度.1": 121.565097,
        "district": "松山區"
      }
    },
    {
      "type": "Feature",
      "geometry": {
        "type": "Point",
        "coordinates": [
          121.560329,
          25.056826
        ]
      },
      "properties": {
        "序號": 16,
        "行政區": "松山區",
        "院所名稱": "陳炳堅內科診所",
        "地址": "臺北市松山區延壽街327號",
        "緯度": 25.056826,
        "經度": 121.560329,
        "電話": "(02)27637199",
        "緯度.1": 25.056826,
        "經度.1": 121.560329,
        "district": "松山區"
      }
    },
    {
      "type": "Feature",
      "geometry": {
        "type": "Point",
        "coordinates": [
          121.551044,
          25.0480002
        ]
      },
      "properties": {
        "序號": 17,
        "行政區": "松山區",
        "院所名稱": "閎新耳鼻喉科皮膚科聯合診所",
        "地址": "臺北市松山區八德路三段20-2號1樓",
        "緯度": 25.0480002,
        "經度": 121.551044,
        "電話": "(02)25779898",
        "緯度.1": 25.0480002,
        "經度.1": 121.551044,
        "district": "松山區"
      }
    },
    {
      "type": "Feature",
      "geometry": {
        "type": "Point",
        "coordinates": [
          121.56221,
          25.058507
        ]
      },
      "properties": {
        "序號": 18,
        "行政區": "松山區",
        "院所名稱": "劉內兒科診所",
        "地址": "臺北市松山區民生東路五段148號1樓",
        "緯度": 25.058507,
        "經度": 121.56221,
        "電話": "(02)27603922",
        "緯度.1": 25.058507,
        "經度.1": 121.56221,
        "district": "松山區"
      }
    },
    {
      "type": "Feature",
      "geometry": {
        "type": "Point",
        "coordinates": [
          121.5635295,
          25.0557787
        ]
      },
      "properties": {
        "序號": 19,
        "行政區": "松山區",
        "院所名稱": "澄東耳鼻喉科診所",
        "地址": "臺北市松山區三民路37號",
        "緯度": 25.0557787,
        "經度": 121.5635295,
        "電話": "(02)27420552",
        "緯度.1": 25.0557787,
        "經度.1": 121.5635295,
        "district": "松山區"
      }
    },
    {
      "type": "Feature",
      "geometry": {
        "type": "Point",
        "coordinates": [
          121.5464319,
          25.0483727
        ]
      },
      "properties": {
        "序號": 20,
        "行政區": "松山區",
        "院所名稱": "駿昂耳鼻喉科診所",
        "地址": "臺北市松山區八德路二段395號1樓",
        "緯度": 25.0483727,
        "經度": 121.5464319,
        "電話": "(02)87728086",
        "緯度.1": 25.0483727,
        "經度.1": 121.5464319,
        "district": "松山區"
      }
    },
    {
      "type": "Feature",
      "geometry": {
        "type": "Point",
        "coordinates": [
          121.564603,
          25.060923
        ]
      },
      "properties": {
        "序號": 21,
        "行政區": "松山區",
        "院所名稱": "畇力診所",
        "地址": "臺北市松山區富錦街512號1樓",
        "緯度": 25.060923,
        "經度": 121.564603,
        "電話": "(02)27659022",
        "緯度.1": 25.060923,
        "經度.1": 121.564603,
        "district": "松山區"
      }
    },
    {
      "type": "Feature",
      "geometry": {
        "type": "Point",
        "coordinates": [
          121.5600709,
          25.05879
        ]
      },
      "properties": {
        "序號": 22,
        "行政區": "松山區",
        "院所名稱": "心田民生診所",
        "地址": "臺北市松山區民生東路五段105號1樓",
        "緯度": 25.05879,
        "經度": 121.5600709,
        "電話": "(02)27653039",
        "緯度.1": 25.05879,
        "經度.1": 121.5600709,
        "district": "松山區"
      }
    },
    {
      "type": "Feature",
      "geometry": {
        "type": "Point",
        "coordinates": [
          121.5478149,
          25.0616002
        ]
      },
      "properties": {
        "序號": 23,
        "行政區": "松山區",
        "院所名稱": "弘宇診所",
        "地址": "臺北市松山區民權東路三段160巷2之6號",
        "緯度": 25.0616002,
        "經度": 121.5478149,
        "電話": "(02)27128875",
        "緯度.1": 25.0616002,
        "經度.1": 121.5478149,
        "district": "松山區"
      }
    },
    {
      "type": "Feature",
      "geometry": {
        "type": "Point",
        "coordinates": [
          121.563012,
          25.0269555
        ]
      },
      "properties": {
        "序號": 24,
        "行政區": "信義區",
        "院所名稱": "臺北醫學大學附設醫院",
        "地址": "臺北市信義區吳興街252號",
        "緯度": 25.0269555,
        "經度": 121.563012,
        "電話": "(02)27372181",
        "緯度.1": 25.0269555,
        "經度.1": 121.563012,
        "district": "信義區"
      }
    },
    {
      "type": "Feature",
      "geometry": {
        "type": "Point",
        "coordinates": [
          121.5830385,
          25.0385914
        ]
      },
      "properties": {
        "序號": 25,
        "行政區": "信義區",
        "院所名稱": "臺北市立聯合醫院附設信義門診部",
        "地址": "臺北市信義區大道路116號1樓",
        "緯度": 25.0385914,
        "經度": 121.5830385,
        "電話": "(02)87804152",
        "緯度.1": 25.0385914,
        "經度.1": 121.5830385,
        "district": "信義區"
      }
    },
    {
      "type": "Feature",
      "geometry": {
        "type": "Point",
        "coordinates": [
          121.575595,
          25.0482589
        ]
      },
      "properties": {
        "序號": 26,
        "行政區": "信義區",
        "院所名稱": "明輝診所",
        "地址": "臺北市信義區松隆路282-3號",
        "緯度": 25.0482589,
        "經度": 121.575595,
        "電話": "(02)87871235",
        "緯度.1": 25.0482589,
        "經度.1": 121.575595,
        "district": "信義區"
      }
    },
    {
      "type": "Feature",
      "geometry": {
        "type": "Point",
        "coordinates": [
          121.5688038,
          25.0261438
        ]
      },
      "properties": {
        "序號": 27,
        "行政區": "信義區",
        "院所名稱": "松仁耳鼻喉科診所",
        "地址": "臺北市信義區松仁路231號",
        "緯度": 25.0261438,
        "經度": 121.5688038,
        "電話": "(02)87808580",
        "緯度.1": 25.0261438,
        "經度.1": 121.5688038,
        "district": "信義區"
      }
    },
    {
      "type": "Feature",
      "geometry": {
        "type": "Point",
        "coordinates": [
          121.5774791,
          25.0477482
        ]
      },
      "properties": {
        "序號": 28,
        "行政區": "信義區",
        "院所名稱": "松禾診所",
        "地址": "臺北市信義區松山路130號3樓",
        "緯度": 25.0477482,
        "經度": 121.5774791,
        "電話": "(02)27666738",
        "緯度.1": 25.0477482,
        "經度.1": 121.5774791,
        "district": "信義區"
      }
    },
    {
      "type": "Feature",
      "geometry": {
        "type": "Point",
        "coordinates": [
          121.5811319,
          25.036847
        ]
      },
      "properties": {
        "序號": 29,
        "行政區": "信義區",
        "院所名稱": "林應然小兒科診所",
        "地址": "臺北市信義區福德街75號",
        "緯度": 25.036847,
        "經度": 121.5811319,
        "電話": "(02)27595328",
        "緯度.1": 25.036847,
        "經度.1": 121.5811319,
        "district": "信義區"
      }
    },
    {
      "type": "Feature",
      "geometry": {
        "type": "Point",
        "coordinates": [
          121.5645429,
          25.0279119
        ]
      },
      "properties": {
        "序號": 30,
        "行政區": "信義區",
        "院所名稱": "長風小兒科診所",
        "地址": "臺北市信義區莊敬路351號",
        "緯度": 25.0279119,
        "經度": 121.5645429,
        "電話": "(02)27227943",
        "緯度.1": 25.0279119,
        "經度.1": 121.5645429,
        "district": "信義區"
      }
    },
    {
      "type": "Feature",
      "geometry": {
        "type": "Point",
        "coordinates": [
          121.5768198,
          25.0383995
        ]
      },
      "properties": {
        "序號": 31,
        "行政區": "信義區",
        "院所名稱": "信義邱婦產科診所",
        "地址": "臺北市信義區虎林街198號",
        "緯度": 25.0383995,
        "經度": 121.5768198,
        "電話": "(02)27278275",
        "緯度.1": 25.0383995,
        "經度.1": 121.5768198,
        "district": "信義區"
      }
    },
    {
      "type": "Feature",
      "geometry": {
        "type": "Point",
        "coordinates": [
          121.5694373,
          25.0238287
        ]
      },
      "properties": {
        "序號": 32,
        "行政區": "信義區",
        "院所名稱": "張育驍診所",
        "地址": "臺北市信義區吳興街467巷2弄6號1樓",
        "緯度": 25.0238287,
        "經度": 121.5694373,
        "電話": "(02)27296611",
        "緯度.1": 25.0238287,
        "經度.1": 121.5694373,
        "district": "信義區"
      }
    },
    {
      "type": "Feature",
      "geometry": {
        "type": "Point",
        "coordinates": [
          121.5813254,
          25.0424736
        ]
      },
      "properties": {
        "序號": 33,
        "行政區": "信義區",
        "院所名稱": "登瑞安診所",
        "地址": "臺北市信義區林口街232號",
        "緯度": 25.0424736,
        "經度": 121.5813254,
        "電話": "(02)27265228",
        "緯度.1": 25.0424736,
        "經度.1": 121.5813254,
        "district": "信義區"
      }
    },
    {
      "type": "Feature",
      "geometry": {
        "type": "Point",
        "coordinates": [
          121.578016,
          25.0438009
        ]
      },
      "properties": {
        "序號": 34,
        "行政區": "信義區",
        "院所名稱": "黃啟彰診所",
        "地址": "臺北市信義區松山路261-1號",
        "緯度": 25.0438009,
        "經度": 121.578016,
        "電話": "(02)27696218",
        "緯度.1": 25.0438009,
        "經度.1": 121.578016,
        "district": "信義區"
      }
    },
    {
      "type": "Feature",
      "geometry": {
        "type": "Point",
        "coordinates": [
          121.5832353,
          25.0394052
        ]
      },
      "properties": {
        "序號": 35,
        "行政區": "信義區",
        "院所名稱": "承芯耳鼻喉科診所",
        "地址": "臺北市信義區大道路121號1樓",
        "緯度": 25.0394052,
        "經度": 121.5832353,
        "電話": "(02)27265025",
        "緯度.1": 25.0394052,
        "經度.1": 121.5832353,
        "district": "信義區"
      }
    },
    {
      "type": "Feature",
      "geometry": {
        "type": "Point",
        "coordinates": [
          121.563555,
          25.0420132
        ]
      },
      "properties": {
        "序號": 36,
        "行政區": "信義區",
        "院所名稱": "聯合報系員工診療所",
        "地址": "臺北市信義區忠孝東路四段559巷1號6樓",
        "緯度": 25.0420132,
        "經度": 121.563555,
        "電話": "(02)27601618",
        "緯度.1": 25.0420132,
        "經度.1": 121.563555,
        "district": "信義區"
      }
    },
    {
      "type": "Feature",
      "geometry": {
        "type": "Point",
        "coordinates": [
          121.5547681,
          25.0364269
        ]
      },
      "properties": {
        "序號": 37,
        "行政區": "大安區",
        "院所名稱": "國泰醫療財團法人國泰綜合醫院",
        "地址": "臺北市大安區仁愛路四段280號",
        "緯度": 25.0364269,
        "經度": 121.5547681,
        "電話": "(02)27082121",
        "緯度.1": 25.0364269,
        "經度.1": 121.5547681,
        "district": "大安區"
      }
    },
    {
      "type": "Feature",
      "geometry": {
        "type": "Point",
        "coordinates": [
          121.5453853,
          25.037298
        ]
      },
      "properties": {
        "序號": 38,
        "行政區": "大安區",
        "院所名稱": "臺北市立聯合醫院仁愛院區",
        "地址": "臺北市大安區仁愛路四段10號",
        "緯度": 25.037298,
        "經度": 121.5453853,
        "電話": "(02)27093600",
        "緯度.1": 25.037298,
        "經度.1": 121.5453853,
        "district": "大安區"
      }
    },
    {
      "type": "Feature",
      "geometry": {
        "type": "Point",
        "coordinates": [
          121.5499289,
          25.036515
        ]
      },
      "properties": {
        "序號": 39,
        "行政區": "大安區",
        "院所名稱": "中山醫療社團法人中山醫院",
        "地址": "臺北市大安區仁愛路四段112巷11號",
        "緯度": 25.036515,
        "經度": 121.5499289,
        "電話": "(02)27081166",
        "緯度.1": 25.036515,
        "經度.1": 121.5499289,
        "district": "大安區"
      }
    },
    {
      "type": "Feature",
      "geometry": {
        "type": "Point",
        "coordinates": [
          121.544274,
          25.021577
        ]
      },
      "properties": {
        "序號": 40,
        "行政區": "大安區",
        "院所名稱": "臺北市立聯合醫院附設大安門診部",
        "地址": "臺北市大安區辛亥路三段15號1樓",
        "緯度": 25.021577,
        "經度": 121.544274,
        "電話": "(02)27390997",
        "緯度.1": 25.021577,
        "經度.1": 121.544274,
        "district": "大安區"
      }
    },
    {
      "type": "Feature",
      "geometry": {
        "type": "Point",
        "coordinates": [
          121.5429539,
          25.0247199
        ]
      },
      "properties": {
        "序號": 41,
        "行政區": "大安區",
        "院所名稱": "啟誠聯合診所",
        "地址": "臺北市大安區和平東路二段120號",
        "緯度": 25.0247199,
        "經度": 121.5429539,
        "電話": "(02)23784380",
        "緯度.1": 25.0247199,
        "經度.1": 121.5429539,
        "district": "大安區"
      }
    },
    {
      "type": "Feature",
      "geometry": {
        "type": "Point",
        "coordinates": [
          121.534529,
          25.025638
        ]
      },
      "properties": {
        "序號": 42,
        "行政區": "大安區",
        "院所名稱": "小禾馨小兒專科診所",
        "地址": "臺北市大安區新生南路三段4號1樓",
        "緯度": 25.025638,
        "經度": 121.534529,
        "電話": "(02)23698833",
        "緯度.1": 25.025638,
        "經度.1": 121.534529,
        "district": "大安區"
      }
    },
    {
      "type": "Feature",
      "geometry": {
        "type": "Point",
        "coordinates": [
          121.5371884,
          25.0252194
        ]
      },
      "properties": {
        "序號": 43,
        "行政區": "大安區",
        "院所名稱": "尹書田醫療財團法人書田泌尿科眼科診所",
        "地址": "臺北市大安區建國南路二段276號",
        "緯度": 25.0252194,
        "經度": 121.5371884,
        "電話": "(02)23690211",
        "緯度.1": 25.0252194,
        "經度.1": 121.5371884,
        "district": "大安區"
      }
    },
    {
      "type": "Feature",
      "geometry": {
        "type": "Point",
        "coordinates": [
          121.5417644,
          25.0268541
        ]
      },
      "properties": {
        "序號": 44,
        "行政區": "大安區",
        "院所名稱": "仁安診所",
        "地址": "臺北市大安區和平東路二段175巷34號",
        "緯度": 25.0268541,
        "經度": 121.5417644,
        "電話": "(02)27065995",
        "緯度.1": 25.0268541,
        "經度.1": 121.5417644,
        "district": "大安區"
      }
    },
    {
      "type": "Feature",
      "geometry": {
        "type": "Point",
        "coordinates": [
          121.5429088,
          25.0252092
        ]
      },
      "properties": {
        "序號": 45,
        "行政區": "大安區",
        "院所名稱": "安東診所",
        "地址": "臺北市大安區和平東路二段229號",
        "緯度": 25.0252092,
        "經度": 121.5429088,
        "電話": "(02)27088995",
        "緯度.1": 25.0252092,
        "經度.1": 121.5429088,
        "district": "大安區"
      }
    },
    {
      "type": "Feature",
      "geometry": {
        "type": "Point",
        "coordinates": [
          121.5454675,
          25.0335544
        ]
      },
      "properties": {
        "序號": 46,
        "行政區": "大安區",
        "院所名稱": "吳坤光婦產科診所",
        "地址": "臺北市大安區信義路四段59號",
        "緯度": 25.0335544,
        "經度": 121.5454675,
        "電話": "(02)27059320",
        "緯度.1": 25.0335544,
        "經度.1": 121.5454675,
        "district": "大安區"
      }
    },
    {
      "type": "Feature",
      "geometry": {
        "type": "Point",
        "coordinates": [
          121.5538745,
          25.0317962
        ]
      },
      "properties": {
        "序號": 47,
        "行政區": "大安區",
        "院所名稱": "呂小兒科診所",
        "地址": "臺北市大安區通化街24巷6號1樓",
        "緯度": 25.0317962,
        "經度": 121.5538745,
        "電話": "(02)27000708",
        "緯度.1": 25.0317962,
        "經度.1": 121.5538745,
        "district": "大安區"
      }
    },
    {
      "type": "Feature",
      "geometry": {
        "type": "Point",
        "coordinates": [
          121.5458646,
          25.026519
        ]
      },
      "properties": {
        "序號": 48,
        "行政區": "大安區",
        "院所名稱": "李細祥內科診所",
        "地址": "臺北市大安區四維路198巷30弄5號",
        "緯度": 25.026519,
        "經度": 121.5458646,
        "電話": "(02)27018159",
        "緯度.1": 25.026519,
        "經度.1": 121.5458646,
        "district": "大安區"
      }
    },
    {
      "type": "Feature",
      "geometry": {
        "type": "Point",
        "coordinates": [
          121.5514928,
          25.0334156
        ]
      },
      "properties": {
        "序號": 49,
        "行政區": "大安區",
        "院所名稱": "杏保醫網信誠診所",
        "地址": "臺北市大安區信義路四段197號",
        "緯度": 25.0334156,
        "經度": 121.5514928,
        "電話": "(02)27068208",
        "緯度.1": 25.0334156,
        "經度.1": 121.5514928,
        "district": "大安區"
      }
    },
    {
      "type": "Feature",
      "geometry": {
        "type": "Point",
        "coordinates": [
          121.5469852,
          25.0244621
        ]
      },
      "properties": {
        "序號": 50,
        "行政區": "大安區",
        "院所名稱": "那明珠診所",
        "地址": "臺北市大安區和平東路三段8號",
        "緯度": 25.0244621,
        "經度": 121.5469852,
        "電話": "(02)27360589",
        "緯度.1": 25.0244621,
        "經度.1": 121.5469852,
        "district": "大安區"
      }
    },
    {
      "type": "Feature",
      "geometry": {
        "type": "Point",
        "coordinates": [
          121.5473509,
          25.0281223
        ]
      },
      "properties": {
        "序號": 51,
        "行政區": "大安區",
        "院所名稱": "松德診所",
        "地址": "臺北市大安區四維路170巷16號1樓",
        "緯度": 25.0281223,
        "經度": 121.5473509,
        "電話": "(02)27073326",
        "緯度.1": 25.0281223,
        "經度.1": 121.5473509,
        "district": "大安區"
      }
    },
    {
      "type": "Feature",
      "geometry": {
        "type": "Point",
        "coordinates": [
          121.5391259,
          25.042392
        ]
      },
      "properties": {
        "序號": 52,
        "行政區": "大安區",
        "院所名稱": "林繼國診所",
        "地址": "臺北市大安區忠孝東路三段217巷1弄12號1樓",
        "緯度": 25.042392,
        "經度": 121.5391259,
        "電話": "(02)27315568",
        "緯度.1": 25.042392,
        "經度.1": 121.5391259,
        "district": "大安區"
      }
    },
    {
      "type": "Feature",
      "geometry": {
        "type": "Point",
        "coordinates": [
          121.5561433,
          25.0208037
        ]
      },
      "properties": {
        "序號": 53,
        "行政區": "大安區",
        "院所名稱": "邱醫師診所",
        "地址": "臺北市大安區和平東路三段288號",
        "緯度": 25.0208037,
        "經度": 121.5561433,
        "電話": "(02)27392696",
        "緯度.1": 25.0208037,
        "經度.1": 121.5561433,
        "district": "大安區"
      }
    },
    {
      "type": "Feature",
      "geometry": {
        "type": "Point",
        "coordinates": [
          121.555769,
          25.0351741
        ]
      },
      "properties": {
        "序號": 54,
        "行政區": "大安區",
        "院所名稱": "夏爾診所",
        "地址": "臺北市大安區信義路四段265巷54號",
        "緯度": 25.0351741,
        "經度": 121.555769,
        "電話": "(02)23255508",
        "緯度.1": 25.0351741,
        "經度.1": 121.555769,
        "district": "大安區"
      }
    },
    {
      "type": "Feature",
      "geometry": {
        "type": "Point",
        "coordinates": [
          121.5492637,
          25.0424571
        ]
      },
      "properties": {
        "序號": 55,
        "行政區": "大安區",
        "院所名稱": "家齡診所",
        "地址": "臺北市大安區敦化南路一段191號B1",
        "緯度": 25.0424571,
        "經度": 121.5492637,
        "電話": "(02)27211258",
        "緯度.1": 25.0424571,
        "經度.1": 121.5492637,
        "district": "大安區"
      }
    },
    {
      "type": "Feature",
      "geometry": {
        "type": "Point",
        "coordinates": [
          121.5447751,
          25.0249641
        ]
      },
      "properties": {
        "序號": 56,
        "行政區": "大安區",
        "院所名稱": "健華診所",
        "地址": "臺北市大安區和平東路二段299號",
        "緯度": 25.0249641,
        "經度": 121.5447751,
        "電話": "(02)27072990",
        "緯度.1": 25.0249641,
        "經度.1": 121.5447751,
        "district": "大安區"
      }
    },
    {
      "type": "Feature",
      "geometry": {
        "type": "Point",
        "coordinates": [
          121.5341658,
          25.0153816
        ]
      },
      "properties": {
        "序號": 57,
        "行政區": "大安區",
        "院所名稱": "國立台灣大學保健中心",
        "地址": "臺北市大安區羅斯福路四段1號",
        "緯度": 25.0153816,
        "經度": 121.5341658,
        "電話": "(02)33662156",
        "緯度.1": 25.0153816,
        "經度.1": 121.5341658,
        "district": "大安區"
      }
    },
    {
      "type": "Feature",
      "geometry": {
        "type": "Point",
        "coordinates": [
          121.5323691,
          25.0260775
        ]
      },
      "properties": {
        "序號": 58,
        "行政區": "大安區",
        "院所名稱": "許靜瑛小兒科診所",
        "地址": "臺北市大安區和平東路一段230號1樓",
        "緯度": 25.0260775,
        "經度": 121.5323691,
        "電話": "(02)23629088",
        "緯度.1": 25.0260775,
        "經度.1": 121.5323691,
        "district": "大安區"
      }
    },
    {
      "type": "Feature",
      "geometry": {
        "type": "Point",
        "coordinates": [
          121.5460712,
          25.0441073
        ]
      },
      "properties": {
        "序號": 59,
        "行政區": "大安區",
        "院所名稱": "博全婦產科診所",
        "地址": "臺北市大安區大安路一段18號",
        "緯度": 25.0441073,
        "經度": 121.5460712,
        "電話": "(02)27774427",
        "緯度.1": 25.0441073,
        "經度.1": 121.5460712,
        "district": "大安區"
      }
    },
    {
      "type": "Feature",
      "geometry": {
        "type": "Point",
        "coordinates": [
          121.5291,
          25.0324319
        ]
      },
      "properties": {
        "序號": 60,
        "行政區": "大安區",
        "院所名稱": "博安家庭醫學診所",
        "地址": "臺北市大安區麗水街3號",
        "緯度": 25.0324319,
        "經度": 121.5291,
        "電話": "(02)23567066",
        "緯度.1": 25.0324319,
        "經度.1": 121.5291,
        "district": "大安區"
      }
    },
    {
      "type": "Feature",
      "geometry": {
        "type": "Point",
        "coordinates": [
          121.5542524,
          25.0411765
        ]
      },
      "properties": {
        "序號": 61,
        "行政區": "大安區",
        "院所名稱": "黃文香兒科診所",
        "地址": "臺北市大安區忠孝東路四段250號2樓之1",
        "緯度": 25.0411765,
        "經度": 121.5542524,
        "電話": "(02)27313305",
        "緯度.1": 25.0411765,
        "經度.1": 121.5542524,
        "district": "大安區"
      }
    },
    {
      "type": "Feature",
      "geometry": {
        "type": "Point",
        "coordinates": [
          121.5428886,
          25.0336067
        ]
      },
      "properties": {
        "序號": 62,
        "行政區": "大安區",
        "院所名稱": "愛群兒童成長診所",
        "地址": "臺北市大安區信義路三段155號1樓",
        "緯度": 25.0336067,
        "經度": 121.5428886,
        "電話": "(02)55998330",
        "緯度.1": 25.0336067,
        "經度.1": 121.5428886,
        "district": "大安區"
      }
    },
    {
      "type": "Feature",
      "geometry": {
        "type": "Point",
        "coordinates": [
          121.528109,
          25.021088
        ]
      },
      "properties": {
        "序號": 63,
        "行政區": "大安區",
        "院所名稱": "葉明憲小兒科診所",
        "地址": "臺北市大安區羅斯福路三段191號2樓",
        "緯度": 25.021088,
        "經度": 121.528109,
        "電話": "(02)23691688",
        "緯度.1": 25.021088,
        "經度.1": 121.528109,
        "district": "大安區"
      }
    },
    {
      "type": "Feature",
      "geometry": {
        "type": "Point",
        "coordinates": [
          121.5461772,
          25.02855
        ]
      },
      "properties": {
        "序號": 64,
        "行政區": "大安區",
        "院所名稱": "劉建宏診所",
        "地址": "臺北市大安區大安路二段139號",
        "緯度": 25.02855,
        "經度": 121.5461772,
        "電話": "(02)27002368",
        "緯度.1": 25.02855,
        "經度.1": 121.5461772,
        "district": "大安區"
      }
    },
    {
      "type": "Feature",
      "geometry": {
        "type": "Point",
        "coordinates": [
          121.5437215,
          25.0280339
        ]
      },
      "properties": {
        "序號": 65,
        "行政區": "大安區",
        "院所名稱": "樂益耳鼻喉科診所",
        "地址": "臺北市大安區復興南路二段161號1樓",
        "緯度": 25.0280339,
        "經度": 121.5437215,
        "電話": "(02)27096199",
        "緯度.1": 25.0280339,
        "經度.1": 121.5437215,
        "district": "大安區"
      }
    },
    {
      "type": "Feature",
      "geometry": {
        "type": "Point",
        "coordinates": [
          121.5481867,
          25.0412362
        ]
      },
      "properties": {
        "序號": 66,
        "行政區": "大安區",
        "院所名稱": "東風診所",
        "地址": "臺北市大安區忠孝東路四段132號4樓",
        "緯度": 25.0412362,
        "經度": 121.5481867,
        "電話": "(02)27775868",
        "緯度.1": 25.0412362,
        "經度.1": 121.5481867,
        "district": "大安區"
      }
    },
    {
      "type": "Feature",
      "geometry": {
        "type": "Point",
        "coordinates": [
          121.5521399,
          25.0400063
        ]
      },
      "properties": {
        "序號": 67,
        "行政區": "大安區",
        "院所名稱": "伊生診所",
        "地址": "臺北市大安區忠孝東路四段216巷32弄15號",
        "緯度": 25.0400063,
        "經度": 121.5521399,
        "電話": "(02)27751301",
        "緯度.1": 25.0400063,
        "經度.1": 121.5521399,
        "district": "大安區"
      }
    },
    {
      "type": "Feature",
      "geometry": {
        "type": "Point",
        "coordinates": [
          121.534547,
          25.0258209
        ]
      },
      "properties": {
        "序號": 68,
        "行政區": "大安區",
        "院所名稱": "禾馨新生婦幼診所",
        "地址": "臺北市大安區新生南路三段2號",
        "緯度": 25.0258209,
        "經度": 121.534547,
        "電話": "(02)23682333",
        "緯度.1": 25.0258209,
        "經度.1": 121.534547,
        "district": "大安區"
      }
    },
    {
      "type": "Feature",
      "geometry": {
        "type": "Point",
        "coordinates": [
          121.5223977,
          25.0588457
        ]
      },
      "properties": {
        "序號": 69,
        "行政區": "中山區",
        "院所名稱": "台灣基督長老教會馬偕醫療財團法人馬偕紀念醫院",
        "地址": "臺北市中山區中山北路二段92號",
        "緯度": 25.0588457,
        "經度": 121.5223977,
        "電話": "(02)25433535",
        "緯度.1": 25.0588457,
        "經度.1": 121.5223977,
        "district": "中山區"
      }
    },
    {
      "type": "Feature",
      "geometry": {
        "type": "Point",
        "coordinates": [
          121.5223977,
          25.0588457
        ]
      },
      "properties": {
        "序號": 70,
        "行政區": "中山區",
        "院所名稱": "台灣基督長老教會馬偕醫療財團法人馬偕兒童醫院",
        "地址": "臺北市中山區中山北路二段92號",
        "緯度": 25.0588457,
        "經度": 121.5223977,
        "電話": "(02)25433535",
        "緯度.1": 25.0588457,
        "經度.1": 121.5223977,
        "district": "中山區"
      }
    },
    {
      "type": "Feature",
      "geometry": {
        "type": "Point",
        "coordinates": [
          121.5339024,
          25.0503253
        ]
      },
      "properties": {
        "序號": 71,
        "行政區": "中山區",
        "院所名稱": "協和婦女醫院",
        "地址": "臺北市中山區松江路85巷5號",
        "緯度": 25.0503253,
        "經度": 121.5339024,
        "電話": "(02)25072222",
        "緯度.1": 25.0503253,
        "經度.1": 121.5339024,
        "district": "中山區"
      }
    },
    {
      "type": "Feature",
      "geometry": {
        "type": "Point",
        "coordinates": [
          121.5336997,
          25.0643338
        ]
      },
      "properties": {
        "序號": 72,
        "行政區": "中山區",
        "院所名稱": "臺北市立聯合醫院附設中山門診部",
        "地址": "臺北市中山區松江路367號1樓",
        "緯度": 25.0643338,
        "經度": 121.5336997,
        "電話": "(02)25013363",
        "緯度.1": 25.0643338,
        "經度.1": 121.5336997,
        "district": "中山區"
      }
    },
    {
      "type": "Feature",
      "geometry": {
        "type": "Point",
        "coordinates": [
          121.548607,
          25.081959
        ]
      },
      "properties": {
        "序號": 73,
        "行政區": "中山區",
        "院所名稱": "大直佳恩診所",
        "地址": "臺北市中山區北安路591號",
        "緯度": 25.081959,
        "經度": 121.548607,
        "電話": "(02)25323301",
        "緯度.1": 25.081959,
        "經度.1": 121.548607,
        "district": "中山區"
      }
    },
    {
      "type": "Feature",
      "geometry": {
        "type": "Point",
        "coordinates": [
          121.5483172,
          25.0819988
        ]
      },
      "properties": {
        "序號": 74,
        "行政區": "中山區",
        "院所名稱": "大直診所",
        "地址": "臺北市中山區北安路595巷2弄2號1樓",
        "緯度": 25.0819988,
        "經度": 121.5483172,
        "電話": "(02)25332339",
        "緯度.1": 25.0819988,
        "經度.1": 121.5483172,
        "district": "中山區"
      }
    },
    {
      "type": "Feature",
      "geometry": {
        "type": "Point",
        "coordinates": [
          121.5345612,
          25.0482593
        ]
      },
      "properties": {
        "序號": 75,
        "行政區": "中山區",
        "院所名稱": "木生婦幼診所",
        "地址": "臺北市中山區長安東路二段90號1-4樓",
        "緯度": 25.0482593,
        "經度": 121.5345612,
        "電話": "(02)25012312",
        "緯度.1": 25.0482593,
        "經度.1": 121.5345612,
        "district": "中山區"
      }
    },
    {
      "type": "Feature",
      "geometry": {
        "type": "Point",
        "coordinates": [
          121.5482474,
          25.0809155
        ]
      },
      "properties": {
        "序號": 76,
        "行政區": "中山區",
        "院所名稱": "北安聯合診所",
        "地址": "臺北市中山區北安路569-3號",
        "緯度": 25.0809155,
        "經度": 121.5482474,
        "電話": "(02)25337777",
        "緯度.1": 25.0809155,
        "經度.1": 121.5482474,
        "district": "中山區"
      }
    },
    {
      "type": "Feature",
      "geometry": {
        "type": "Point",
        "coordinates": [
          121.5253564,
          25.0608794
        ]
      },
      "properties": {
        "序號": 77,
        "行政區": "中山區",
        "院所名稱": "四季和安婦幼診所",
        "地址": "臺北市中山區林森北路458號",
        "緯度": 25.0608794,
        "經度": 121.5253564,
        "電話": "(02)25677310",
        "緯度.1": 25.0608794,
        "經度.1": 121.5253564,
        "district": "中山區"
      }
    },
    {
      "type": "Feature",
      "geometry": {
        "type": "Point",
        "coordinates": [
          121.5386246,
          25.0603334
        ]
      },
      "properties": {
        "序號": 78,
        "行政區": "中山區",
        "院所名稱": "正恩耳鼻喉科診所",
        "地址": "臺北市中山區錦州街321號",
        "緯度": 25.0603334,
        "經度": 121.5386246,
        "電話": "(02)25052293",
        "緯度.1": 25.0603334,
        "經度.1": 121.5386246,
        "district": "中山區"
      }
    },
    {
      "type": "Feature",
      "geometry": {
        "type": "Point",
        "coordinates": [
          121.559291,
          25.079518
        ]
      },
      "properties": {
        "序號": 79,
        "行政區": "中山區",
        "院所名稱": "永育樂群診所",
        "地址": "臺北市中山區樂群二路210之2號",
        "緯度": 25.079518,
        "經度": 121.559291,
        "電話": "(02)85012268",
        "緯度.1": 25.079518,
        "經度.1": 121.559291,
        "district": "中山區"
      }
    },
    {
      "type": "Feature",
      "geometry": {
        "type": "Point",
        "coordinates": [
          121.5350437,
          25.0619681
        ]
      },
      "properties": {
        "序號": 80,
        "行政區": "中山區",
        "院所名稱": "杏慈診所",
        "地址": "臺北市中山區民權東路二段152巷2-1號1樓",
        "緯度": 25.0619681,
        "經度": 121.5350437,
        "電話": "(02)25013109",
        "緯度.1": 25.0619681,
        "經度.1": 121.5350437,
        "district": "中山區"
      }
    },
    {
      "type": "Feature",
      "geometry": {
        "type": "Point",
        "coordinates": [
          121.548768,
          25.082687
        ]
      },
      "properties": {
        "序號": 81,
        "行政區": "中山區",
        "院所名稱": "固廉診所",
        "地址": "臺北市中山區北安路613號595巷1號地下一層",
        "緯度": 25.082687,
        "經度": 121.548768,
        "電話": "(02)25323036",
        "緯度.1": 25.082687,
        "經度.1": 121.548768,
        "district": "中山區"
      }
    },
    {
      "type": "Feature",
      "geometry": {
        "type": "Point",
        "coordinates": [
          121.548768,
          25.082687
        ]
      },
      "properties": {
        "序號": 82,
        "行政區": "中山區",
        "院所名稱": "高固廉診所",
        "地址": "臺北市中山區北安路613號",
        "緯度": 25.082687,
        "經度": 121.548768,
        "電話": "(02)25323036",
        "緯度.1": 25.082687,
        "經度.1": 121.548768,
        "district": "中山區"
      }
    },
    {
      "type": "Feature",
      "geometry": {
        "type": "Point",
        "coordinates": [
          121.5485852,
          25.0823024
        ]
      },
      "properties": {
        "序號": 83,
        "行政區": "中山區",
        "院所名稱": "惟廉診所",
        "地址": "臺北市中山區北安路595巷1號B1",
        "緯度": 25.0823024,
        "經度": 121.5485852,
        "電話": "(02)25323036",
        "緯度.1": 25.0823024,
        "經度.1": 121.5485852,
        "district": "中山區"
      }
    },
    {
      "type": "Feature",
      "geometry": {
        "type": "Point",
        "coordinates": [
          121.549022,
          25.08373
        ]
      },
      "properties": {
        "序號": 84,
        "行政區": "中山區",
        "院所名稱": "莊宇龍診所",
        "地址": "臺北市中山區北安路637號1樓",
        "緯度": 25.08373,
        "經度": 121.549022,
        "電話": "(02)25331255",
        "緯度.1": 25.08373,
        "經度.1": 121.549022,
        "district": "中山區"
      }
    },
    {
      "type": "Feature",
      "geometry": {
        "type": "Point",
        "coordinates": [
          121.5406557,
          25.0609826
        ]
      },
      "properties": {
        "序號": 85,
        "行政區": "中山區",
        "院所名稱": "陳世澤內科診所",
        "地址": "臺北市中山區龍江路284-1號",
        "緯度": 25.0609826,
        "經度": 121.5406557,
        "電話": "(02)25011239",
        "緯度.1": 25.0609826,
        "經度.1": 121.5406557,
        "district": "中山區"
      }
    },
    {
      "type": "Feature",
      "geometry": {
        "type": "Point",
        "coordinates": [
          121.531288,
          25.0581019
        ]
      },
      "properties": {
        "序號": 86,
        "行政區": "中山區",
        "院所名稱": "陳炯輝診所",
        "地址": "臺北市中山區民生東路二段103號",
        "緯度": 25.0581019,
        "經度": 121.531288,
        "電話": "(02)25221796",
        "緯度.1": 25.0581019,
        "經度.1": 121.531288,
        "district": "中山區"
      }
    },
    {
      "type": "Feature",
      "geometry": {
        "type": "Point",
        "coordinates": [
          121.5254986,
          25.0642894
        ]
      },
      "properties": {
        "序號": 87,
        "行政區": "中山區",
        "院所名稱": "晴光診所",
        "地址": "臺北市中山區林森北路556號1樓",
        "緯度": 25.0642894,
        "經度": 121.5254986,
        "電話": "(02)25853210",
        "緯度.1": 25.0642894,
        "經度.1": 121.5254986,
        "district": "中山區"
      }
    },
    {
      "type": "Feature",
      "geometry": {
        "type": "Point",
        "coordinates": [
          121.5461131,
          25.0796826
        ]
      },
      "properties": {
        "序號": 88,
        "行政區": "中山區",
        "院所名稱": "愛鄰診所",
        "地址": "臺北市中山區北安路520-1號",
        "緯度": 25.0796826,
        "經度": 121.5461131,
        "電話": "(02)25322333",
        "緯度.1": 25.0796826,
        "經度.1": 121.5461131,
        "district": "中山區"
      }
    },
    {
      "type": "Feature",
      "geometry": {
        "type": "Point",
        "coordinates": [
          121.5284609,
          25.0647653
        ]
      },
      "properties": {
        "序號": 89,
        "行政區": "中山區",
        "院所名稱": "農安診所",
        "地址": "臺北市中山區農安街62號",
        "緯度": 25.0647653,
        "經度": 121.5284609,
        "電話": "(02)25978590",
        "緯度.1": 25.0647653,
        "經度.1": 121.5284609,
        "district": "中山區"
      }
    },
    {
      "type": "Feature",
      "geometry": {
        "type": "Point",
        "coordinates": [
          121.540973,
          25.0564601
        ]
      },
      "properties": {
        "序號": 90,
        "行政區": "中山區",
        "院所名稱": "寧康聯合診所",
        "地址": "臺北市中山區龍江路209巷6-1號",
        "緯度": 25.0564601,
        "經度": 121.540973,
        "電話": "(02)25013862",
        "緯度.1": 25.0564601,
        "經度.1": 121.540973,
        "district": "中山區"
      }
    },
    {
      "type": "Feature",
      "geometry": {
        "type": "Point",
        "coordinates": [
          121.5406268,
          25.0606048
        ]
      },
      "properties": {
        "序號": 91,
        "行政區": "中山區",
        "院所名稱": "榮星診所",
        "地址": "臺北市中山區龍江路272號",
        "緯度": 25.0606048,
        "經度": 121.5406268,
        "電話": "(02)25168112",
        "緯度.1": 25.0606048,
        "經度.1": 121.5406268,
        "district": "中山區"
      }
    },
    {
      "type": "Feature",
      "geometry": {
        "type": "Point",
        "coordinates": [
          121.5488519,
          25.0815673
        ]
      },
      "properties": {
        "序號": 92,
        "行政區": "中山區",
        "院所名稱": "德美診所",
        "地址": "臺北市中山區北安路596號1樓",
        "緯度": 25.0815673,
        "經度": 121.5488519,
        "電話": "(02)25326618",
        "緯度.1": 25.0815673,
        "經度.1": 121.5488519,
        "district": "中山區"
      }
    },
    {
      "type": "Feature",
      "geometry": {
        "type": "Point",
        "coordinates": [
          121.5302883,
          25.0567407
        ]
      },
      "properties": {
        "序號": 93,
        "行政區": "中山區",
        "院所名稱": "慶恩小兒科診所",
        "地址": "臺北市中山區吉林路117號",
        "緯度": 25.0567407,
        "經度": 121.5302883,
        "電話": "(02)25683199",
        "緯度.1": 25.0567407,
        "經度.1": 121.5302883,
        "district": "中山區"
      }
    },
    {
      "type": "Feature",
      "geometry": {
        "type": "Point",
        "coordinates": [
          121.5233323,
          25.0578291
        ]
      },
      "properties": {
        "序號": 94,
        "行政區": "中山區",
        "院所名稱": "鄭志誠小兒科診所",
        "地址": "臺北市中山區民生東路一段8號",
        "緯度": 25.0578291,
        "經度": 121.5233323,
        "電話": "(02)25512246",
        "緯度.1": 25.0578291,
        "經度.1": 121.5233323,
        "district": "中山區"
      }
    },
    {
      "type": "Feature",
      "geometry": {
        "type": "Point",
        "coordinates": [
          121.5407533,
          25.0552012
        ]
      },
      "properties": {
        "序號": 95,
        "行政區": "中山區",
        "院所名稱": "龍江小兒科診所",
        "地址": "臺北市中山區龍江路181-1號1樓",
        "緯度": 25.0552012,
        "經度": 121.5407533,
        "電話": "(02)25152433",
        "緯度.1": 25.0552012,
        "經度.1": 121.5407533,
        "district": "中山區"
      }
    },
    {
      "type": "Feature",
      "geometry": {
        "type": "Point",
        "coordinates": [
          121.5408252,
          25.0661594
        ]
      },
      "properties": {
        "序號": 96,
        "行政區": "中山區",
        "院所名稱": "龍江固廉診所",
        "地址": "臺北市中山區龍江路360號",
        "緯度": 25.0661594,
        "經度": 121.5408252,
        "電話": "(02)25170093",
        "緯度.1": 25.0661594,
        "經度.1": 121.5408252,
        "district": "中山區"
      }
    },
    {
      "type": "Feature",
      "geometry": {
        "type": "Point",
        "coordinates": [
          121.5217812,
          25.0576456
        ]
      },
      "properties": {
        "序號": 97,
        "行政區": "中山區",
        "院所名稱": "雙連婦產科小兒科診所",
        "地址": "臺北市中山區民生西路30號4樓",
        "緯度": 25.0576456,
        "經度": 121.5217812,
        "電話": "(02)25222350",
        "緯度.1": 25.0576456,
        "經度.1": 121.5217812,
        "district": "中山區"
      }
    },
    {
      "type": "Feature",
      "geometry": {
        "type": "Point",
        "coordinates": [
          121.5237713,
          25.0648345
        ]
      },
      "properties": {
        "序號": 98,
        "行政區": "中山區",
        "院所名稱": "綠葉親子診所",
        "地址": "臺北市中山區農安街12-1號1樓",
        "緯度": 25.0648345,
        "經度": 121.5237713,
        "電話": "(02)25935559",
        "緯度.1": 25.0648345,
        "經度.1": 121.5237713,
        "district": "中山區"
      }
    },
    {
      "type": "Feature",
      "geometry": {
        "type": "Point",
        "coordinates": [
          121.542597,
          25.0473869
        ]
      },
      "properties": {
        "序號": 99,
        "行政區": "中山區",
        "院所名稱": "中崙國際診所",
        "地址": "臺北市中山區八德路二段305號1樓",
        "緯度": 25.0473869,
        "經度": 121.542597,
        "電話": "(02)27711501",
        "緯度.1": 25.0473869,
        "經度.1": 121.542597,
        "district": "中山區"
      }
    },
    {
      "type": "Feature",
      "geometry": {
        "type": "Point",
        "coordinates": [
          121.5071105,
          25.0353943
        ]
      },
      "properties": {
        "序號": 100,
        "行政區": "中正區",
        "院所名稱": "臺北市立聯合醫院和平院區",
        "地址": "臺北市中正區中華路二段33號",
        "緯度": 25.0353943,
        "經度": 121.5071105,
        "電話": "(02)23889595",
        "緯度.1": 25.0353943,
        "經度.1": 121.5071105,
        "district": "中正區"
      }
    },
    {
      "type": "Feature",
      "geometry": {
        "type": "Point",
        "coordinates": [
          121.5192885,
          25.0289947
        ]
      },
      "properties": {
        "序號": 101,
        "行政區": "中正區",
        "院所名稱": "臺北市立聯合醫院婦幼院區",
        "地址": "臺北市中正區福州街12號",
        "緯度": 25.0289947,
        "經度": 121.5192885,
        "電話": "(02)23916470",
        "緯度.1": 25.0289947,
        "經度.1": 121.5192885,
        "district": "中正區"
      }
    },
    {
      "type": "Feature",
      "geometry": {
        "type": "Point",
        "coordinates": [
          121.518583,
          25.0443271
        ]
      },
      "properties": {
        "序號": 102,
        "行政區": "中正區",
        "院所名稱": "國立臺灣大學醫學院附設醫院兒童醫院",
        "地址": "臺北市中正區中山南路8號",
        "緯度": 25.0443271,
        "經度": 121.518583,
        "電話": "(02)23123456\r\n",
        "語音預約": "(02)23567890",
        "緯度.1": 25.0443271,
        "經度.1": 121.518583,
        "district": "中正區"
      }
    },
    {
      "type": "Feature",
      "geometry": {
        "type": "Point",
        "coordinates": [
          121.5160136,
          25.0304306
        ]
      },
      "properties": {
        "序號": 103,
        "行政區": "中正區",
        "院所名稱": "臺北市立聯合醫院附設中正門診部",
        "地址": "臺北市中正區牯嶺街24號",
        "緯度": 25.0304306,
        "經度": 121.5160136,
        "電話": "(02)23210168",
        "緯度.1": 25.0304306,
        "經度.1": 121.5160136,
        "district": "中正區"
      }
    },
    {
      "type": "Feature",
      "geometry": {
        "type": "Point",
        "coordinates": [
          121.5139338,
          25.0432027
        ]
      },
      "properties": {
        "序號": 104,
        "行政區": "中正區",
        "院所名稱": "禾馨婦產科診所",
        "地址": "臺北市中正區懷寧街78號1樓",
        "緯度": 25.0432027,
        "經度": 121.5139338,
        "電話": "(02)23612323",
        "緯度.1": 25.0432027,
        "經度.1": 121.5139338,
        "district": "中正區"
      }
    },
    {
      "type": "Feature",
      "geometry": {
        "type": "Point",
        "coordinates": [
          121.5233726,
          25.0406064
        ]
      },
      "properties": {
        "序號": 105,
        "行政區": "中正區",
        "院所名稱": "周正成小兒科診所",
        "地址": "臺北市中正區徐州路24號",
        "緯度": 25.0406064,
        "經度": 121.5233726,
        "電話": "(02)23516830",
        "緯度.1": 25.0406064,
        "經度.1": 121.5233726,
        "district": "中正區"
      }
    },
    {
      "type": "Feature",
      "geometry": {
        "type": "Point",
        "coordinates": [
          121.5179649,
          25.0457882
        ]
      },
      "properties": {
        "序號": 106,
        "行政區": "中正區",
        "院所名稱": "和眾綜合診所",
        "地址": "臺北市中正區忠孝西路一段6號1樓",
        "緯度": 25.0457882,
        "經度": 121.5179649,
        "電話": "(02)23818766",
        "緯度.1": 25.0457882,
        "經度.1": 121.5179649,
        "district": "中正區"
      }
    },
    {
      "type": "Feature",
      "geometry": {
        "type": "Point",
        "coordinates": [
          121.5212306,
          25.0291185
        ]
      },
      "properties": {
        "序號": 107,
        "行政區": "中正區",
        "院所名稱": "悅心診所",
        "地址": "臺北市中正區羅斯福路二段7-2號",
        "緯度": 25.0291185,
        "經度": 121.5212306,
        "電話": "(02)23961008",
        "緯度.1": 25.0291185,
        "經度.1": 121.5212306,
        "district": "中正區"
      }
    },
    {
      "type": "Feature",
      "geometry": {
        "type": "Point",
        "coordinates": [
          121.5190675,
          25.0258949
        ]
      },
      "properties": {
        "序號": 108,
        "行政區": "中正區",
        "院所名稱": "健康101診所",
        "地址": "臺北市中正區牯嶺街97號1樓",
        "緯度": 25.0258949,
        "經度": 121.5190675,
        "電話": "(02)23648085",
        "緯度.1": 25.0258949,
        "經度.1": 121.5190675,
        "district": "中正區"
      }
    },
    {
      "type": "Feature",
      "geometry": {
        "type": "Point",
        "coordinates": [
          121.5087132,
          25.0513086
        ]
      },
      "properties": {
        "序號": 109,
        "行政區": "大同區",
        "院所名稱": "臺北市立聯合醫院中興院區",
        "地址": "臺北市大同區鄭州路145號",
        "緯度": 25.0513086,
        "經度": 121.5087132,
        "電話": "(02)25523234",
        "緯度.1": 25.0513086,
        "經度.1": 121.5087132,
        "district": "大同區"
      }
    },
    {
      "type": "Feature",
      "geometry": {
        "type": "Point",
        "coordinates": [
          121.5162533,
          25.0656996
        ]
      },
      "properties": {
        "序號": 110,
        "行政區": "大同區",
        "院所名稱": "臺北市立聯合醫院附設大同門診部",
        "地址": "臺北市大同區昌吉街52號1樓",
        "緯度": 25.0656996,
        "經度": 121.5162533,
        "電話": "(02)25948971",
        "緯度.1": 25.0656996,
        "經度.1": 121.5162533,
        "district": "大同區"
      }
    },
    {
      "type": "Feature",
      "geometry": {
        "type": "Point",
        "coordinates": [
          121.5128815,
          25.0596329
        ]
      },
      "properties": {
        "序號": 111,
        "行政區": "大同區",
        "院所名稱": "建順診所",
        "地址": "臺北市大同區甘州街51號1樓",
        "緯度": 25.0596329,
        "經度": 121.5128815,
        "電話": "(02)25573250",
        "緯度.1": 25.0596329,
        "經度.1": 121.5128815,
        "district": "大同區"
      }
    },
    {
      "type": "Feature",
      "geometry": {
        "type": "Point",
        "coordinates": [
          121.5134393,
          25.0651103
        ]
      },
      "properties": {
        "序號": 112,
        "行政區": "大同區",
        "院所名稱": "施小兒科診所",
        "地址": "臺北市大同區重慶北路三段28號",
        "緯度": 25.0651103,
        "經度": 121.5134393,
        "電話": "(02)25941935",
        "緯度.1": 25.0651103,
        "經度.1": 121.5134393,
        "district": "大同區"
      }
    },
    {
      "type": "Feature",
      "geometry": {
        "type": "Point",
        "coordinates": [
          121.5126782,
          25.0588267
        ]
      },
      "properties": {
        "序號": 113,
        "行政區": "大同區",
        "院所名稱": "鈞生診所",
        "地址": "臺北市大同區甘州街28號",
        "緯度": 25.0588267,
        "經度": 121.5126782,
        "電話": "(02)25570048",
        "緯度.1": 25.0588267,
        "經度.1": 121.5126782,
        "district": "大同區"
      }
    },
    {
      "type": "Feature",
      "geometry": {
        "type": "Point",
        "coordinates": [
          121.5144381,
          25.0569008
        ]
      },
      "properties": {
        "序號": 114,
        "行政區": "大同區",
        "院所名稱": "寧夏診所",
        "地址": "臺北市大同區民生西路236號1樓",
        "緯度": 25.0569008,
        "經度": 121.5144381,
        "電話": "(02)25586060",
        "緯度.1": 25.0569008,
        "經度.1": 121.5144381,
        "district": "大同區"
      }
    },
    {
      "type": "Feature",
      "geometry": {
        "type": "Point",
        "coordinates": [
          121.5139452,
          25.0663565
        ]
      },
      "properties": {
        "序號": 115,
        "行政區": "大同區",
        "院所名稱": "澤康診所",
        "地址": "臺北市大同區重慶北路三段71號",
        "緯度": 25.0663565,
        "經度": 121.5139452,
        "電話": "(02)25960922",
        "緯度.1": 25.0663565,
        "經度.1": 121.5139452,
        "district": "大同區"
      }
    },
    {
      "type": "Feature",
      "geometry": {
        "type": "Point",
        "coordinates": [
          121.5139488,
          25.0674448
        ]
      },
      "properties": {
        "序號": 116,
        "行政區": "大同區",
        "院所名稱": "羅志弘診所",
        "地址": "臺北市大同區重慶北路三段115號",
        "緯度": 25.0674448,
        "經度": 121.5139488,
        "電話": "(02)25921666",
        "緯度.1": 25.0674448,
        "經度.1": 121.5139488,
        "district": "大同區"
      }
    },
    {
      "type": "Feature",
      "geometry": {
        "type": "Point",
        "coordinates": [
          121.515086,
          25.0514479
        ]
      },
      "properties": {
        "序號": 117,
        "行政區": "大同區",
        "院所名稱": "羅源彰診所",
        "地址": "臺北市大同區長安西路137號",
        "緯度": 25.0514479,
        "經度": 121.515086,
        "電話": "(02)25552500",
        "緯度.1": 25.0514479,
        "經度.1": 121.515086,
        "district": "大同區"
      }
    },
    {
      "type": "Feature",
      "geometry": {
        "type": "Point",
        "coordinates": [
          121.519998,
          25.060251
        ]
      },
      "properties": {
        "序號": 118,
        "行政區": "大同區",
        "院所名稱": "悅昇診所",
        "地址": "臺北市大同區錦西街50-1號",
        "緯度": 25.060251,
        "經度": 121.519998,
        "電話": "(02)25502664",
        "緯度.1": 25.060251,
        "經度.1": 121.519998,
        "district": "大同區"
      }
    },
    {
      "type": "Feature",
      "geometry": {
        "type": "Point",
        "coordinates": [
          121.5035547,
          25.0416765
        ]
      },
      "properties": {
        "序號": 119,
        "行政區": "萬華區",
        "院所名稱": "國立臺灣大學醫學院附設醫院北護分院",
        "地址": "臺北市萬華區內江街87號",
        "緯度": 25.0416765,
        "經度": 121.5035547,
        "電話": "(02)23717101",
        "緯度.1": 25.0416765,
        "經度.1": 121.5035547,
        "district": "萬華區"
      }
    },
    {
      "type": "Feature",
      "geometry": {
        "type": "Point",
        "coordinates": [
          121.4943799,
          25.0277299
        ]
      },
      "properties": {
        "序號": 120,
        "行政區": "萬華區",
        "院所名稱": "西園醫療社團法人西園醫院",
        "地址": "臺北市萬華區西園路二段270號",
        "緯度": 25.0277299,
        "經度": 121.4943799,
        "電話": "(02)23076968",
        "緯度.1": 25.0277299,
        "經度.1": 121.4943799,
        "district": "萬華區"
      }
    },
    {
      "type": "Feature",
      "geometry": {
        "type": "Point",
        "coordinates": [
          121.4976402,
          25.0232014
        ]
      },
      "properties": {
        "序號": 121,
        "行政區": "萬華區",
        "院所名稱": "臺北市立聯合醫院附設萬華門診部",
        "地址": "臺北市萬華區東園街152號",
        "緯度": 25.0232014,
        "經度": 121.4976402,
        "電話": "(02)23395383",
        "緯度.1": 25.0232014,
        "經度.1": 121.4976402,
        "district": "萬華區"
      }
    },
    {
      "type": "Feature",
      "geometry": {
        "type": "Point",
        "coordinates": [
          121.5053638,
          25.0259172
        ]
      },
      "properties": {
        "序號": 122,
        "行政區": "萬華區",
        "院所名稱": "可為診所",
        "地址": "臺北市萬華區青年路24號1樓",
        "緯度": 25.0259172,
        "經度": 121.5053638,
        "電話": "(02)23370111",
        "緯度.1": 25.0259172,
        "經度.1": 121.5053638,
        "district": "萬華區"
      }
    },
    {
      "type": "Feature",
      "geometry": {
        "type": "Point",
        "coordinates": [
          121.5025942,
          25.0231
        ]
      },
      "properties": {
        "序號": 123,
        "行政區": "萬華區",
        "院所名稱": "光耳鼻喉科診所",
        "地址": "臺北市萬華區青年路90號",
        "緯度": 25.0231,
        "經度": 121.5025942,
        "電話": "(02)23077565",
        "緯度.1": 25.0231,
        "經度.1": 121.5025942,
        "district": "萬華區"
      }
    },
    {
      "type": "Feature",
      "geometry": {
        "type": "Point",
        "coordinates": [
          121.5034524,
          25.0294985
        ]
      },
      "properties": {
        "序號": 124,
        "行政區": "萬華區",
        "院所名稱": "名家耳鼻喉科診所",
        "地址": "臺北市萬華區西藏路107-2號1樓",
        "緯度": 25.0294985,
        "經度": 121.5034524,
        "電話": "(02)23036513",
        "緯度.1": 25.0294985,
        "經度.1": 121.5034524,
        "district": "萬華區"
      }
    },
    {
      "type": "Feature",
      "geometry": {
        "type": "Point",
        "coordinates": [
          121.4948419,
          25.0251946
        ]
      },
      "properties": {
        "序號": 125,
        "行政區": "萬華區",
        "院所名稱": "快樂兒童診所",
        "地址": "臺北市萬華區寶興街121號",
        "緯度": 25.0251946,
        "經度": 121.4948419,
        "電話": "(02)23328610",
        "緯度.1": 25.0251946,
        "經度.1": 121.4948419,
        "district": "萬華區"
      }
    },
    {
      "type": "Feature",
      "geometry": {
        "type": "Point",
        "coordinates": [
          121.5045323,
          25.0257006
        ]
      },
      "properties": {
        "序號": 126,
        "行政區": "萬華區",
        "院所名稱": "佳安診所",
        "地址": "臺北市萬華區青年路34號",
        "緯度": 25.0257006,
        "經度": 121.5045323,
        "電話": "(02)23320898",
        "緯度.1": 25.0257006,
        "經度.1": 121.5045323,
        "district": "萬華區"
      }
    },
    {
      "type": "Feature",
      "geometry": {
        "type": "Point",
        "coordinates": [
          121.506136,
          25.0275478
        ]
      },
      "properties": {
        "序號": 127,
        "行政區": "萬華區",
        "院所名稱": "青年診所",
        "地址": "臺北市萬華區中華路二段424號",
        "緯度": 25.0275478,
        "經度": 121.506136,
        "電話": "(02)23032450",
        "緯度.1": 25.0275478,
        "經度.1": 121.506136,
        "district": "萬華區"
      }
    },
    {
      "type": "Feature",
      "geometry": {
        "type": "Point",
        "coordinates": [
          121.5006874,
          25.0264556
        ]
      },
      "properties": {
        "序號": 128,
        "行政區": "萬華區",
        "院所名稱": "益銓診所",
        "地址": "臺北市萬華區萬大路233號",
        "緯度": 25.0264556,
        "經度": 121.5006874,
        "電話": "(02)23331323",
        "緯度.1": 25.0264556,
        "經度.1": 121.5006874,
        "district": "萬華區"
      }
    },
    {
      "type": "Feature",
      "geometry": {
        "type": "Point",
        "coordinates": [
          121.4980321,
          25.0208299
        ]
      },
      "properties": {
        "序號": 129,
        "行政區": "萬華區",
        "院所名稱": "健安診所",
        "地址": "臺北市萬華區萬大路432號1樓",
        "緯度": 25.0208299,
        "經度": 121.4980321,
        "電話": "(02)23012255",
        "緯度.1": 25.0208299,
        "經度.1": 121.4980321,
        "district": "萬華區"
      }
    },
    {
      "type": "Feature",
      "geometry": {
        "type": "Point",
        "coordinates": [
          121.4973673,
          25.0242278
        ]
      },
      "properties": {
        "序號": 130,
        "行政區": "萬華區",
        "院所名稱": "聖約翰婦產科診所",
        "地址": "臺北市萬華區東園街175號",
        "緯度": 25.0242278,
        "經度": 121.4973673,
        "電話": "(02)23098502",
        "緯度.1": 25.0242278,
        "經度.1": 121.4973673,
        "district": "萬華區"
      }
    },
    {
      "type": "Feature",
      "geometry": {
        "type": "Point",
        "coordinates": [
          121.5064733,
          25.027104
        ]
      },
      "properties": {
        "序號": 131,
        "行政區": "萬華區",
        "院所名稱": "漢宗小兒科診所",
        "地址": "臺北市萬華區中華路二段434號",
        "緯度": 25.027104,
        "經度": 121.5064733,
        "電話": "(02)23039022",
        "緯度.1": 25.027104,
        "經度.1": 121.5064733,
        "district": "萬華區"
      }
    },
    {
      "type": "Feature",
      "geometry": {
        "type": "Point",
        "coordinates": [
          121.5584967,
          25.0004801
        ]
      },
      "properties": {
        "序號": 132,
        "行政區": "文山區",
        "院所名稱": "臺北市立萬芳醫院-委託臺北醫學大學辦理",
        "地址": "臺北市文山區興隆路三段111號",
        "緯度": 25.0004801,
        "經度": 121.5584967,
        "電話": "(02)29307930",
        "緯度.1": 25.0004801,
        "經度.1": 121.5584967,
        "district": "文山區"
      }
    },
    {
      "type": "Feature",
      "geometry": {
        "type": "Point",
        "coordinates": [
          121.5765374,
          24.9876129
        ]
      },
      "properties": {
        "序號": 133,
        "行政區": "文山區",
        "院所名稱": "臺北市立聯合醫院附設政大門診部",
        "地址": "臺北市文山區指南路二段117號",
        "緯度": 24.9876129,
        "經度": 121.5765374,
        "電話": "(02)82377441",
        "緯度.1": 24.9876129,
        "經度.1": 121.5765374,
        "district": "文山區"
      }
    },
    {
      "type": "Feature",
      "geometry": {
        "type": "Point",
        "coordinates": [
          121.5449358,
          24.9984458
        ]
      },
      "properties": {
        "序號": 134,
        "行政區": "文山區",
        "院所名稱": "仁荔健康診所",
        "地址": "臺北市文山區興隆路一段258號1樓",
        "緯度": 24.9984458,
        "經度": 121.5449358,
        "電話": "(02)29339986",
        "緯度.1": 24.9984458,
        "經度.1": 121.5449358,
        "district": "文山區"
      }
    },
    {
      "type": "Feature",
      "geometry": {
        "type": "Point",
        "coordinates": [
          121.544426,
          24.998981
        ]
      },
      "properties": {
        "序號": 135,
        "行政區": "文山區",
        "院所名稱": "仁耀診所",
        "地址": "臺北市文山區興隆路一段273號",
        "緯度": 24.998981,
        "經度": 121.544426,
        "電話": "(02)29317788",
        "緯度.1": 24.998981,
        "經度.1": 121.544426,
        "district": "文山區"
      }
    },
    {
      "type": "Feature",
      "geometry": {
        "type": "Point",
        "coordinates": [
          121.540178,
          24.9918649
        ]
      },
      "properties": {
        "序號": 136,
        "行政區": "文山區",
        "院所名稱": "佳鴻診所",
        "地址": "臺北市文山區羅斯福路六段256號1樓",
        "緯度": 24.9918649,
        "經度": 121.540178,
        "電話": "(02)29333096",
        "緯度.1": 24.9918649,
        "經度.1": 121.540178,
        "district": "文山區"
      }
    },
    {
      "type": "Feature",
      "geometry": {
        "type": "Point",
        "coordinates": [
          121.5535166,
          25.0017769
        ]
      },
      "properties": {
        "序號": 137,
        "行政區": "文山區",
        "院所名稱": "屈銘軒小兒科診所",
        "地址": "臺北市文山區興隆路二段301巷4-2號",
        "緯度": 25.0017769,
        "經度": 121.5535166,
        "電話": "(02)29308518",
        "緯度.1": 25.0017769,
        "經度.1": 121.5535166,
        "district": "文山區"
      }
    },
    {
      "type": "Feature",
      "geometry": {
        "type": "Point",
        "coordinates": [
          121.548169,
          25.000224
        ]
      },
      "properties": {
        "序號": 138,
        "行政區": "文山區",
        "院所名稱": "東翰診所",
        "地址": "臺北市文山區興隆路二段139號",
        "緯度": 25.000224,
        "經度": 121.548169,
        "電話": "(02)29308330",
        "緯度.1": 25.000224,
        "經度.1": 121.548169,
        "district": "文山區"
      }
    },
    {
      "type": "Feature",
      "geometry": {
        "type": "Point",
        "coordinates": [
          121.5479708,
          24.9997064
        ]
      },
      "properties": {
        "序號": 139,
        "行政區": "文山區",
        "院所名稱": "林建輝小兒科診所",
        "地址": "臺北市文山區興隆路二段70號1樓",
        "緯度": 24.9997064,
        "經度": 121.5479708,
        "電話": "(02)29334933",
        "緯度.1": 24.9997064,
        "經度.1": 121.5479708,
        "district": "文山區"
      }
    },
    {
      "type": "Feature",
      "geometry": {
        "type": "Point",
        "coordinates": [
          121.5613698,
          24.9850176
        ]
      },
      "properties": {
        "序號": 140,
        "行政區": "文山區",
        "院所名稱": "洪佑承小兒專科診所",
        "地址": "臺北市文山區興隆路四段64-2號1樓",
        "緯度": 24.9850176,
        "經度": 121.5613698,
        "電話": "(02)29364708",
        "緯度.1": 24.9850176,
        "經度.1": 121.5613698,
        "district": "文山區"
      }
    },
    {
      "type": "Feature",
      "geometry": {
        "type": "Point",
        "coordinates": [
          121.5604923,
          24.9884068
        ]
      },
      "properties": {
        "序號": 141,
        "行政區": "文山區",
        "院所名稱": "徐慧玲診所",
        "地址": "臺北市文山區興隆路四段97號",
        "緯度": 24.9884068,
        "經度": 121.5604923,
        "電話": "(02)22340000",
        "緯度.1": 24.9884068,
        "經度.1": 121.5604923,
        "district": "文山區"
      }
    },
    {
      "type": "Feature",
      "geometry": {
        "type": "Point",
        "coordinates": [
          121.5676749,
          24.988673
        ]
      },
      "properties": {
        "序號": 142,
        "行政區": "文山區",
        "院所名稱": "順欣診所",
        "地址": "臺北市文山區木柵路三段112號",
        "緯度": 24.988673,
        "經度": 121.5676749,
        "電話": "(02)29391011",
        "緯度.1": 24.988673,
        "經度.1": 121.5676749,
        "district": "文山區"
      }
    },
    {
      "type": "Feature",
      "geometry": {
        "type": "Point",
        "coordinates": [
          121.5401245,
          24.9923978
        ]
      },
      "properties": {
        "序號": 143,
        "行政區": "文山區",
        "院所名稱": "黃偉志小兒科診所",
        "地址": "臺北市文山區萬慶街12號",
        "緯度": 24.9923978,
        "經度": 121.5401245,
        "電話": "(02)29354556",
        "緯度.1": 24.9923978,
        "經度.1": 121.5401245,
        "district": "文山區"
      }
    },
    {
      "type": "Feature",
      "geometry": {
        "type": "Point",
        "coordinates": [
          121.5469277,
          24.9956492
        ]
      },
      "properties": {
        "序號": 144,
        "行政區": "文山區",
        "院所名稱": "瑞萱診所",
        "地址": "臺北市文山區景華街124號",
        "緯度": 24.9956492,
        "經度": 121.5469277,
        "電話": "(02)29305313",
        "緯度.1": 24.9956492,
        "經度.1": 121.5469277,
        "district": "文山區"
      }
    },
    {
      "type": "Feature",
      "geometry": {
        "type": "Point",
        "coordinates": [
          121.5589315,
          24.9977567
        ]
      },
      "properties": {
        "序號": 145,
        "行政區": "文山區",
        "院所名稱": "葉洪小兒科診所",
        "地址": "臺北市文山區興隆路三段202號",
        "緯度": 24.9977567,
        "經度": 121.5589315,
        "電話": "(02)22300055",
        "緯度.1": 24.9977567,
        "經度.1": 121.5589315,
        "district": "文山區"
      }
    },
    {
      "type": "Feature",
      "geometry": {
        "type": "Point",
        "coordinates": [
          121.5609538,
          24.9860185
        ]
      },
      "properties": {
        "序號": 146,
        "行政區": "文山區",
        "院所名稱": "德安小兒科診所",
        "地址": "臺北市文山區興隆路四段6-10號1樓",
        "緯度": 24.9860185,
        "經度": 121.5609538,
        "電話": "(02)29395299",
        "緯度.1": 24.9860185,
        "經度.1": 121.5609538,
        "district": "文山區"
      }
    },
    {
      "type": "Feature",
      "geometry": {
        "type": "Point",
        "coordinates": [
          121.5600328,
          24.9816663
        ]
      },
      "properties": {
        "序號": 147,
        "行政區": "文山區",
        "院所名稱": "樂群耳鼻喉科家醫科診所",
        "地址": "臺北市文山區木新路三段202號",
        "緯度": 24.9816663,
        "經度": 121.5600328,
        "電話": "(02)22340158",
        "緯度.1": 24.9816663,
        "經度.1": 121.5600328,
        "district": "文山區"
      }
    },
    {
      "type": "Feature",
      "geometry": {
        "type": "Point",
        "coordinates": [
          121.5449064,
          24.9944281
        ]
      },
      "properties": {
        "序號": 148,
        "行政區": "文山區",
        "院所名稱": "震杰小兒科診所",
        "地址": "臺北市文山區景興路129號",
        "緯度": 24.9944281,
        "經度": 121.5449064,
        "電話": "(02)89351869",
        "緯度.1": 24.9944281,
        "經度.1": 121.5449064,
        "district": "文山區"
      }
    },
    {
      "type": "Feature",
      "geometry": {
        "type": "Point",
        "coordinates": [
          121.5454169,
          24.99891
        ]
      },
      "properties": {
        "序號": 149,
        "行政區": "文山區",
        "院所名稱": "興隆內科小兒科診所",
        "地址": "臺北市文山區興隆路二段17號",
        "緯度": 24.99891,
        "經度": 121.5454169,
        "電話": "(02)29311736",
        "緯度.1": 24.99891,
        "經度.1": 121.5454169,
        "district": "文山區"
      }
    },
    {
      "type": "Feature",
      "geometry": {
        "type": "Point",
        "coordinates": [
          121.5393419,
          25.004163
        ]
      },
      "properties": {
        "序號": 150,
        "行政區": "文山區",
        "院所名稱": "興隆李內兒科診所",
        "地址": "臺北市文山區興隆路一段12號",
        "緯度": 25.004163,
        "經度": 121.5393419,
        "電話": "(02)29314537",
        "緯度.1": 25.004163,
        "經度.1": 121.5393419,
        "district": "文山區"
      }
    },
    {
      "type": "Feature",
      "geometry": {
        "type": "Point",
        "coordinates": [
          121.5861422,
          25.0465997
        ]
      },
      "properties": {
        "序號": 151,
        "行政區": "南港區",
        "院所名稱": "臺北市立聯合醫院忠孝院區",
        "地址": "臺北市南港區同德路87號",
        "緯度": 25.0465997,
        "經度": 121.5861422,
        "電話": "(02)27861288",
        "緯度.1": 25.0465997,
        "經度.1": 121.5861422,
        "district": "南港區"
      }
    },
    {
      "type": "Feature",
      "geometry": {
        "type": "Point",
        "coordinates": [
          121.6068266,
          25.0547158
        ]
      },
      "properties": {
        "序號": 152,
        "行政區": "南港區",
        "院所名稱": "臺北市立聯合醫院附設南港門診部",
        "地址": "臺北市南港區南港路一段360號1樓",
        "緯度": 25.0547158,
        "經度": 121.6068266,
        "電話": "(02)27868756",
        "緯度.1": 25.0547158,
        "經度.1": 121.6068266,
        "district": "南港區"
      }
    },
    {
      "type": "Feature",
      "geometry": {
        "type": "Point",
        "coordinates": [
          121.5833753,
          25.0433858
        ]
      },
      "properties": {
        "序號": 153,
        "行政區": "南港區",
        "院所名稱": "中坡耳鼻喉科診所",
        "地址": "臺北市南港區中坡南路29號",
        "緯度": 25.0433858,
        "經度": 121.5833753,
        "電話": "(02)27850329",
        "緯度.1": 25.0433858,
        "經度.1": 121.5833753,
        "district": "南港區"
      }
    },
    {
      "type": "Feature",
      "geometry": {
        "type": "Point",
        "coordinates": [
          121.5815825,
          25.044711
        ]
      },
      "properties": {
        "序號": 154,
        "行政區": "南港區",
        "院所名稱": "友力耳鼻喉科診所",
        "地址": "臺北市南港區中坡北路12號1樓",
        "緯度": 25.044711,
        "經度": 121.5815825,
        "電話": "(02)27853913",
        "緯度.1": 25.044711,
        "經度.1": 121.5815825,
        "district": "南港區"
      }
    },
    {
      "type": "Feature",
      "geometry": {
        "type": "Point",
        "coordinates": [
          121.5867293,
          25.0448163
        ]
      },
      "properties": {
        "序號": 155,
        "行政區": "南港區",
        "院所名稱": "天仁小兒科診所",
        "地址": "臺北市南港區成福路21號",
        "緯度": 25.0448163,
        "經度": 121.5867293,
        "電話": "(02)27862687",
        "緯度.1": 25.0448163,
        "經度.1": 121.5867293,
        "district": "南港區"
      }
    },
    {
      "type": "Feature",
      "geometry": {
        "type": "Point",
        "coordinates": [
          121.5867293,
          25.0448163
        ]
      },
      "properties": {
        "序號": 156,
        "行政區": "南港區",
        "院所名稱": "天仁健康診所",
        "地址": "臺北市南港區成福路21號",
        "緯度": 25.0448163,
        "經度": 121.5867293,
        "電話": "(02)27862687",
        "緯度.1": 25.0448163,
        "經度.1": 121.5867293,
        "district": "南港區"
      }
    },
    {
      "type": "Feature",
      "geometry": {
        "type": "Point",
        "coordinates": [
          121.5878487,
          25.039477
        ]
      },
      "properties": {
        "序號": 157,
        "行政區": "南港區",
        "院所名稱": "永育醫療福德診所",
        "地址": "臺北市南港區福德街320號",
        "緯度": 25.039477,
        "經度": 121.5878487,
        "電話": "(02)27850700",
        "緯度.1": 25.039477,
        "經度.1": 121.5878487,
        "district": "南港區"
      }
    },
    {
      "type": "Feature",
      "geometry": {
        "type": "Point",
        "coordinates": [
          121.6151031,
          25.0455491
        ]
      },
      "properties": {
        "序號": 158,
        "行政區": "南港區",
        "院所名稱": "李文珍小兒科診所",
        "地址": "臺北市南港區研究院路二段74號",
        "緯度": 25.0455491,
        "經度": 121.6151031,
        "電話": "(02)26511871",
        "緯度.1": 25.0455491,
        "經度.1": 121.6151031,
        "district": "南港區"
      }
    },
    {
      "type": "Feature",
      "geometry": {
        "type": "Point",
        "coordinates": [
          121.585405,
          25.045681
        ]
      },
      "properties": {
        "序號": 159,
        "行政區": "南港區",
        "院所名稱": "杏安診所",
        "地址": "臺北市南港區同德路74、76號1樓",
        "緯度": 25.045681,
        "經度": 121.585405,
        "電話": "(02)27892008",
        "緯度.1": 25.045681,
        "經度.1": 121.585405,
        "district": "南港區"
      }
    },
    {
      "type": "Feature",
      "geometry": {
        "type": "Point",
        "coordinates": [
          121.5850593,
          25.0467205
        ]
      },
      "properties": {
        "序號": 160,
        "行政區": "南港區",
        "院所名稱": "松展診所",
        "地址": "臺北市南港區忠孝東路六段110巷18號",
        "緯度": 25.0467205,
        "經度": 121.5850593,
        "電話": "(02)27631373",
        "緯度.1": 25.0467205,
        "經度.1": 121.5850593,
        "district": "南港區"
      }
    },
    {
      "type": "Feature",
      "geometry": {
        "type": "Point",
        "coordinates": [
          121.581555,
          25.0509295
        ]
      },
      "properties": {
        "序號": 161,
        "行政區": "南港區",
        "院所名稱": "陳志鑫診所",
        "地址": "臺北市南港區八德路四段812號",
        "緯度": 25.0509295,
        "經度": 121.581555,
        "電話": "(02)27839698",
        "緯度.1": 25.0509295,
        "經度.1": 121.581555,
        "district": "南港區"
      }
    },
    {
      "type": "Feature",
      "geometry": {
        "type": "Point",
        "coordinates": [
          121.6161373,
          25.0515579
        ]
      },
      "properties": {
        "序號": 162,
        "行政區": "南港區",
        "院所名稱": "陳勝吉診所",
        "地址": "臺北市南港區研究院路一段115號1樓",
        "緯度": 25.0515579,
        "經度": 121.6161373,
        "電話": "(02)27836972",
        "緯度.1": 25.0515579,
        "經度.1": 121.6161373,
        "district": "南港區"
      }
    },
    {
      "type": "Feature",
      "geometry": {
        "type": "Point",
        "coordinates": [
          121.5831839,
          25.0450264
        ]
      },
      "properties": {
        "序號": 163,
        "行政區": "南港區",
        "院所名稱": "義仁兒科診所",
        "地址": "臺北市南港區玉成街138號1樓",
        "緯度": 25.0450264,
        "經度": 121.5831839,
        "電話": "(02)26515929",
        "緯度.1": 25.0450264,
        "經度.1": 121.5831839,
        "district": "南港區"
      }
    },
    {
      "type": "Feature",
      "geometry": {
        "type": "Point",
        "coordinates": [
          121.6151986,
          25.0453206
        ]
      },
      "properties": {
        "序號": 164,
        "行政區": "南港區",
        "院所名稱": "維康診所",
        "地址": "臺北市南港區研究院路二段84巷1號1樓",
        "緯度": 25.0453206,
        "經度": 121.6151986,
        "電話": "(02)26517748",
        "緯度.1": 25.0453206,
        "經度.1": 121.6151986,
        "district": "南港區"
      }
    },
    {
      "type": "Feature",
      "geometry": {
        "type": "Point",
        "coordinates": [
          121.583312,
          25.0439359
        ]
      },
      "properties": {
        "序號": 165,
        "行政區": "南港區",
        "院所名稱": "蔣小兒科診所",
        "地址": "臺北市南港區玉成街166巷30號1樓",
        "緯度": 25.0439359,
        "經度": 121.583312,
        "電話": "(02)26513761",
        "緯度.1": 25.0439359,
        "經度.1": 121.583312,
        "district": "南港區"
      }
    },
    {
      "type": "Feature",
      "geometry": {
        "type": "Point",
        "coordinates": [
          121.5959272,
          25.0733691
        ]
      },
      "properties": {
        "序號": 166,
        "行政區": "內湖區",
        "院所名稱": "三軍總醫院附設民眾診療服務處",
        "地址": "臺北市內湖區成功路二段325號",
        "緯度": 25.0733691,
        "經度": 121.5959272,
        "電話": "(02)87923311",
        "緯度.1": 25.0733691,
        "經度.1": 121.5959272,
        "district": "內湖區"
      }
    },
    {
      "type": "Feature",
      "geometry": {
        "type": "Point",
        "coordinates": [
          121.5907328,
          25.082146
        ]
      },
      "properties": {
        "序號": 167,
        "行政區": "內湖區",
        "院所名稱": "中國醫藥大學附設醫院臺北分院",
        "地址": "臺北市內湖區內湖路二段360號",
        "緯度": 25.082146,
        "經度": 121.5907328,
        "電話": "(02)27919696",
        "緯度.1": 25.082146,
        "經度.1": 121.5907328,
        "district": "內湖區"
      }
    },
    {
      "type": "Feature",
      "geometry": {
        "type": "Point",
        "coordinates": [
          121.608877,
          25.0756867
        ]
      },
      "properties": {
        "序號": 168,
        "行政區": "內湖區",
        "院所名稱": "康寧醫療財團法人康寧醫院",
        "地址": "臺北市內湖區成功路五段420巷26號",
        "緯度": 25.0756867,
        "經度": 121.608877,
        "電話": "(02)26345500",
        "緯度.1": 25.0756867,
        "經度.1": 121.608877,
        "district": "內湖區"
      }
    },
    {
      "type": "Feature",
      "geometry": {
        "type": "Point",
        "coordinates": [
          121.5889951,
          25.0693633
        ]
      },
      "properties": {
        "序號": 169,
        "行政區": "內湖區",
        "院所名稱": "臺北市立聯合醫院附設內湖門診部",
        "地址": "臺北市內湖區民權東路六段99號之1",
        "緯度": 25.0693633,
        "經度": 121.5889951,
        "電話": "(02)27908387",
        "緯度.1": 25.0693633,
        "經度.1": 121.5889951,
        "district": "內湖區"
      }
    },
    {
      "type": "Feature",
      "geometry": {
        "type": "Point",
        "coordinates": [
          121.5817825,
          25.0674958
        ]
      },
      "properties": {
        "序號": 170,
        "行政區": "內湖區",
        "院所名稱": "小禾馨民權小兒專科診所",
        "地址": "臺北市內湖區行忠路191號1樓",
        "緯度": 25.0674958,
        "經度": 121.5817825,
        "電話": "(02)55713333",
        "緯度.1": 25.0674958,
        "經度.1": 121.5817825,
        "district": "內湖區"
      }
    },
    {
      "type": "Feature",
      "geometry": {
        "type": "Point",
        "coordinates": [
          121.5784264,
          25.0806768
        ]
      },
      "properties": {
        "序號": 171,
        "行政區": "內湖區",
        "院所名稱": "仁弘耳鼻喉科診所",
        "地址": "臺北市內湖區內湖路一段737巷50弄33號1樓",
        "緯度": 25.0806768,
        "經度": 121.5784264,
        "電話": "(02)26596360",
        "緯度.1": 25.0806768,
        "經度.1": 121.5784264,
        "district": "內湖區"
      }
    },
    {
      "type": "Feature",
      "geometry": {
        "type": "Point",
        "coordinates": [
          121.6072004,
          25.0747932
        ]
      },
      "properties": {
        "序號": 172,
        "行政區": "內湖區",
        "院所名稱": "日新診所",
        "地址": "臺北市內湖區成功路五段446號1樓",
        "緯度": 25.0747932,
        "經度": 121.6072004,
        "電話": "(02)26342743",
        "緯度.1": 25.0747932,
        "經度.1": 121.6072004,
        "district": "內湖區"
      }
    },
    {
      "type": "Feature",
      "geometry": {
        "type": "Point",
        "coordinates": [
          121.5782848,
          25.0811937
        ]
      },
      "properties": {
        "序號": 173,
        "行政區": "內湖區",
        "院所名稱": "王慶森診所",
        "地址": "臺北市內湖區港墘路65號",
        "緯度": 25.0811937,
        "經度": 121.5782848,
        "電話": "(02)27986052",
        "緯度.1": 25.0811937,
        "經度.1": 121.5782848,
        "district": "內湖區"
      }
    },
    {
      "type": "Feature",
      "geometry": {
        "type": "Point",
        "coordinates": [
          121.6004361,
          25.0848303
        ]
      },
      "properties": {
        "序號": 174,
        "行政區": "內湖區",
        "院所名稱": "永育醫療大湖診所",
        "地址": "臺北市內湖區成功路四段366號",
        "緯度": 25.0848303,
        "經度": 121.6004361,
        "電話": "(02)27906002",
        "緯度.1": 25.0848303,
        "經度.1": 121.6004361,
        "district": "內湖區"
      }
    },
    {
      "type": "Feature",
      "geometry": {
        "type": "Point",
        "coordinates": [
          121.5816723,
          25.0674957
        ]
      },
      "properties": {
        "序號": 175,
        "行政區": "內湖區",
        "院所名稱": "禾馨民權婦幼診所",
        "地址": "臺北市內湖區民權東路六段42號2樓",
        "緯度": 25.0674957,
        "經度": 121.5816723,
        "電話": "(02)55713333",
        "緯度.1": 25.0674957,
        "經度.1": 121.5816723,
        "district": "內湖區"
      }
    },
    {
      "type": "Feature",
      "geometry": {
        "type": "Point",
        "coordinates": [
          121.5928208,
          25.0817373
        ]
      },
      "properties": {
        "序號": 176,
        "行政區": "內湖區",
        "院所名稱": "成安耳鼻喉科診所",
        "地址": "臺北市內湖區成功路四段61巷10號",
        "緯度": 25.0817373,
        "經度": 121.5928208,
        "電話": "(02)27935940",
        "緯度.1": 25.0817373,
        "經度.1": 121.5928208,
        "district": "內湖區"
      }
    },
    {
      "type": "Feature",
      "geometry": {
        "type": "Point",
        "coordinates": [
          121.6191009,
          25.0716329
        ]
      },
      "properties": {
        "序號": 177,
        "行政區": "內湖區",
        "院所名稱": "林永正診所",
        "地址": "臺北市內湖區康樂街130號",
        "緯度": 25.0716329,
        "經度": 121.6191009,
        "電話": "(02)26315567",
        "緯度.1": 25.0716329,
        "經度.1": 121.6191009,
        "district": "內湖區"
      }
    },
    {
      "type": "Feature",
      "geometry": {
        "type": "Point",
        "coordinates": [
          121.5933335,
          25.0809957
        ]
      },
      "properties": {
        "序號": 178,
        "行政區": "內湖區",
        "院所名稱": "林孟勳診所",
        "地址": "臺北市內湖區成功路四段61巷32弄2號",
        "緯度": 25.0809957,
        "經度": 121.5933335,
        "電話": "(02)87920955",
        "緯度.1": 25.0809957,
        "經度.1": 121.5933335,
        "district": "內湖區"
      }
    },
    {
      "type": "Feature",
      "geometry": {
        "type": "Point",
        "coordinates": [
          121.5825415,
          25.0782133
        ]
      },
      "properties": {
        "序號": 179,
        "行政區": "內湖區",
        "院所名稱": "林登山耳鼻喉科診所",
        "地址": "臺北市內湖區文德路96號",
        "緯度": 25.0782133,
        "經度": 121.5825415,
        "電話": "(02)26596638",
        "緯度.1": 25.0782133,
        "經度.1": 121.5825415,
        "district": "內湖區"
      }
    },
    {
      "type": "Feature",
      "geometry": {
        "type": "Point",
        "coordinates": [
          121.5639639,
          25.0831092
        ]
      },
      "properties": {
        "序號": 180,
        "行政區": "內湖區",
        "院所名稱": "育睿診所",
        "地址": "臺北市內湖區內湖路一段217巷35號",
        "緯度": 25.0831092,
        "經度": 121.5639639,
        "電話": "(02)26560801",
        "緯度.1": 25.0831092,
        "經度.1": 121.5639639,
        "district": "內湖區"
      }
    },
    {
      "type": "Feature",
      "geometry": {
        "type": "Point",
        "coordinates": [
          121.5921514,
          25.0816562
        ]
      },
      "properties": {
        "序號": 181,
        "行政區": "內湖區",
        "院所名稱": "馬思特診所",
        "地址": "臺北市內湖區成功路四段53號1樓",
        "緯度": 25.0816562,
        "經度": 121.5921514,
        "電話": "(02)27925994",
        "緯度.1": 25.0816562,
        "經度.1": 121.5921514,
        "district": "內湖區"
      }
    },
    {
      "type": "Feature",
      "geometry": {
        "type": "Point",
        "coordinates": [
          121.5754083,
          25.0778823
        ]
      },
      "properties": {
        "序號": 182,
        "行政區": "內湖區",
        "院所名稱": "國泰醫療財團法人內湖國泰診所",
        "地址": "臺北市內湖區瑞光路337號C棟",
        "緯度": 25.0778823,
        "經度": 121.5754083,
        "電話": "(02)87972121",
        "緯度.1": 25.0778823,
        "經度.1": 121.5754083,
        "district": "內湖區"
      }
    },
    {
      "type": "Feature",
      "geometry": {
        "type": "Point",
        "coordinates": [
          121.5910013,
          25.0805298
        ]
      },
      "properties": {
        "序號": 183,
        "行政區": "內湖區",
        "院所名稱": "康育診所",
        "地址": "臺北市內湖區成功路三段189號2樓",
        "緯度": 25.0805298,
        "經度": 121.5910013,
        "電話": "(02)27909134",
        "緯度.1": 25.0805298,
        "經度.1": 121.5910013,
        "district": "內湖區"
      }
    },
    {
      "type": "Feature",
      "geometry": {
        "type": "Point",
        "coordinates": [
          121.6188311,
          25.0702234
        ]
      },
      "properties": {
        "序號": 184,
        "行政區": "內湖區",
        "院所名稱": "康樂診所",
        "地址": "臺北市內湖區康樂街80號、82號、84號",
        "緯度": 25.0702234,
        "經度": 121.6188311,
        "電話": "(02)26308800",
        "緯度.1": 25.0702234,
        "經度.1": 121.6188311,
        "district": "內湖區"
      }
    },
    {
      "type": "Feature",
      "geometry": {
        "type": "Point",
        "coordinates": [
          121.5795351,
          25.0788586
        ]
      },
      "properties": {
        "序號": 185,
        "行政區": "內湖區",
        "院所名稱": "焉醫師診所",
        "地址": "臺北市內湖區內湖路二段21號",
        "緯度": 25.0788586,
        "經度": 121.5795351,
        "電話": "(02)27995008",
        "緯度.1": 25.0788586,
        "經度.1": 121.5795351,
        "district": "內湖區"
      }
    },
    {
      "type": "Feature",
      "geometry": {
        "type": "Point",
        "coordinates": [
          121.5741515,
          25.0806564
        ]
      },
      "properties": {
        "序號": 186,
        "行政區": "內湖區",
        "院所名稱": "連安診所",
        "地址": "臺北市內湖區內湖路一段619號1樓",
        "緯度": 25.0806564,
        "經度": 121.5741515,
        "電話": "(02)26276705",
        "緯度.1": 25.0806564,
        "經度.1": 121.5741515,
        "district": "內湖區"
      }
    },
    {
      "type": "Feature",
      "geometry": {
        "type": "Point",
        "coordinates": [
          121.598994,
          25.0845096
        ]
      },
      "properties": {
        "序號": 187,
        "行政區": "內湖區",
        "院所名稱": "湖欣診所",
        "地址": "臺北市內湖區成功路四段327號",
        "緯度": 25.0845096,
        "經度": 121.598994,
        "電話": "(02)27918350",
        "緯度.1": 25.0845096,
        "經度.1": 121.598994,
        "district": "內湖區"
      }
    },
    {
      "type": "Feature",
      "geometry": {
        "type": "Point",
        "coordinates": [
          121.5682024,
          25.0792407
        ]
      },
      "properties": {
        "序號": 188,
        "行政區": "內湖區",
        "院所名稱": "陽光活力診所",
        "地址": "臺北市內湖區瑞光路500號1樓",
        "緯度": 25.0792407,
        "經度": 121.5682024,
        "電話": "(02)87973828",
        "緯度.1": 25.0792407,
        "經度.1": 121.5682024,
        "district": "內湖區"
      }
    },
    {
      "type": "Feature",
      "geometry": {
        "type": "Point",
        "coordinates": [
          121.5803312,
          25.0548379
        ]
      },
      "properties": {
        "序號": 189,
        "行政區": "內湖區",
        "院所名稱": "新明診所",
        "地址": "臺北市內湖區新明路386號",
        "緯度": 25.0548379,
        "經度": 121.5803312,
        "電話": "(02)87921282",
        "緯度.1": 25.0548379,
        "經度.1": 121.5803312,
        "district": "內湖區"
      }
    },
    {
      "type": "Feature",
      "geometry": {
        "type": "Point",
        "coordinates": [
          121.5938985,
          25.0848929
        ]
      },
      "properties": {
        "序號": 190,
        "行政區": "內湖區",
        "院所名稱": "劉淦華診所",
        "地址": "臺北市內湖區金龍路43號",
        "緯度": 25.0848929,
        "經度": 121.5938985,
        "電話": "(02)27905374",
        "緯度.1": 25.0848929,
        "經度.1": 121.5938985,
        "district": "內湖區"
      }
    },
    {
      "type": "Feature",
      "geometry": {
        "type": "Point",
        "coordinates": [
          121.593623,
          25.084937
        ]
      },
      "properties": {
        "序號": 191,
        "行政區": "內湖區",
        "院所名稱": "雙湖診所",
        "地址": "臺北市內湖區金龍路49號",
        "緯度": 25.084937,
        "經度": 121.593623,
        "電話": "(02)27910066",
        "緯度.1": 25.084937,
        "經度.1": 121.593623,
        "district": "內湖區"
      }
    },
    {
      "type": "Feature",
      "geometry": {
        "type": "Point",
        "coordinates": [
          121.6096076,
          25.0714109
        ]
      },
      "properties": {
        "序號": 192,
        "行政區": "內湖區",
        "院所名稱": "魏之明小兒科診所",
        "地址": "臺北市內湖區康寧路三段54-6號",
        "緯度": 25.0714109,
        "經度": 121.6096076,
        "電話": "(02)26306968",
        "緯度.1": 25.0714109,
        "經度.1": 121.6096076,
        "district": "內湖區"
      }
    },
    {
      "type": "Feature",
      "geometry": {
        "type": "Point",
        "coordinates": [
          121.5705513,
          25.0818086
        ]
      },
      "properties": {
        "序號": 193,
        "行政區": "內湖區",
        "院所名稱": "魏穀年診所",
        "地址": "臺北市內湖區內湖路一段403號",
        "緯度": 25.0818086,
        "經度": 121.5705513,
        "電話": "(02)26572691",
        "緯度.1": 25.0818086,
        "經度.1": 121.5705513,
        "district": "內湖區"
      }
    },
    {
      "type": "Feature",
      "geometry": {
        "type": "Point",
        "coordinates": [
          121.6172215,
          25.0681719
        ]
      },
      "properties": {
        "序號": 194,
        "行政區": "內湖區",
        "院所名稱": "佳霖診所",
        "地址": "臺北市內湖區東湖路147號2樓",
        "緯度": 25.0681719,
        "經度": 121.6172215,
        "電話": "(02)26334535",
        "緯度.1": 25.0681719,
        "經度.1": 121.6172215,
        "district": "內湖區"
      }
    },
    {
      "type": "Feature",
      "geometry": {
        "type": "Point",
        "coordinates": [
          121.579836,
          25.0789438
        ]
      },
      "properties": {
        "序號": 195,
        "行政區": "內湖區",
        "院所名稱": "高峰診所",
        "地址": "臺北市內湖區內湖路二段39號1樓",
        "緯度": 25.0789438,
        "經度": 121.579836,
        "電話": "(02)26591888",
        "緯度.1": 25.0789438,
        "經度.1": 121.579836,
        "district": "內湖區"
      }
    },
    {
      "type": "Feature",
      "geometry": {
        "type": "Point",
        "coordinates": [
          121.520938,
          25.0964085
        ]
      },
      "properties": {
        "序號": 196,
        "行政區": "士林區",
        "院所名稱": "新光醫療財團法人新光吳火獅紀念醫院",
        "地址": "臺北市士林區文昌路95號",
        "緯度": 25.0964085,
        "經度": 121.520938,
        "電話": "(02)28332211",
        "緯度.1": 25.0964085,
        "經度.1": 121.520938,
        "district": "士林區"
      }
    },
    {
      "type": "Feature",
      "geometry": {
        "type": "Point",
        "coordinates": [
          121.5318912,
          25.1051369
        ]
      },
      "properties": {
        "序號": 197,
        "行政區": "士林區",
        "院所名稱": "臺北市立聯合醫院陽明院區",
        "地址": "臺北市士林區雨聲街105號",
        "緯度": 25.1051369,
        "經度": 121.5318912,
        "電話": "(02)28353456",
        "緯度.1": 25.1051369,
        "經度.1": 121.5318912,
        "district": "士林區"
      }
    },
    {
      "type": "Feature",
      "geometry": {
        "type": "Point",
        "coordinates": [
          121.5197824,
          25.0928085
        ]
      },
      "properties": {
        "序號": 198,
        "行政區": "士林區",
        "院所名稱": "臺北市立聯合醫院附設士林門診部",
        "地址": "臺北市士林區中正路439號1樓",
        "緯度": 25.0928085,
        "經度": 121.5197824,
        "電話": "(02)28836268",
        "緯度.1": 25.0928085,
        "經度.1": 121.5197824,
        "district": "士林區"
      }
    },
    {
      "type": "Feature",
      "geometry": {
        "type": "Point",
        "coordinates": [
          121.5253681,
          25.0950678
        ]
      },
      "properties": {
        "序號": 199,
        "行政區": "士林區",
        "院所名稱": "士林小兒科診所",
        "地址": "臺北市士林區中正路249號",
        "緯度": 25.0950678,
        "經度": 121.5253681,
        "電話": "(02)28812485",
        "緯度.1": 25.0950678,
        "經度.1": 121.5253681,
        "district": "士林區"
      }
    },
    {
      "type": "Feature",
      "geometry": {
        "type": "Point",
        "coordinates": [
          121.5239291,
          25.0946897
        ]
      },
      "properties": {
        "序號": 200,
        "行政區": "士林區",
        "院所名稱": "小禾馨士林小兒專科診所",
        "地址": "臺北市士林區中正路289號",
        "緯度": 25.0946897,
        "經度": 121.5239291,
        "電話": "(02)28827333",
        "緯度.1": 25.0946897,
        "經度.1": 121.5239291,
        "district": "士林區"
      }
    },
    {
      "type": "Feature",
      "geometry": {
        "type": "Point",
        "coordinates": [
          121.5246179,
          25.0956489
        ]
      },
      "properties": {
        "序號": 201,
        "行政區": "士林區",
        "院所名稱": "存德小兒科診所",
        "地址": "臺北市士林區文林路460號",
        "緯度": 25.0956489,
        "經度": 121.5246179,
        "電話": "(02)28342567",
        "緯度.1": 25.0956489,
        "經度.1": 121.5246179,
        "district": "士林區"
      }
    },
    {
      "type": "Feature",
      "geometry": {
        "type": "Point",
        "coordinates": [
          121.5176786,
          25.0866141
        ]
      },
      "properties": {
        "序號": 202,
        "行政區": "士林區",
        "院所名稱": "何小兒科診所",
        "地址": "臺北市士林區福港街176號",
        "緯度": 25.0866141,
        "經度": 121.5176786,
        "電話": "(02)28827401",
        "緯度.1": 25.0866141,
        "經度.1": 121.5176786,
        "district": "士林區"
      }
    },
    {
      "type": "Feature",
      "geometry": {
        "type": "Point",
        "coordinates": [
          121.5324541,
          25.1213403
        ]
      },
      "properties": {
        "序號": 203,
        "行政區": "士林區",
        "院所名稱": "貝爾診所",
        "地址": "臺北市士林區中山北路七段82巷9號1樓",
        "緯度": 25.1213403,
        "經度": 121.5324541,
        "電話": "(02)28729980",
        "緯度.1": 25.1213403,
        "經度.1": 121.5324541,
        "district": "士林區"
      }
    },
    {
      "type": "Feature",
      "geometry": {
        "type": "Point",
        "coordinates": [
          121.5252705,
          25.1075469
        ]
      },
      "properties": {
        "序號": 204,
        "行政區": "士林區",
        "院所名稱": "佩佩婦幼診所",
        "地址": "臺北市士林區中山北路六段182號",
        "緯度": 25.1075469,
        "經度": 121.5252705,
        "電話": "(02)28386262",
        "緯度.1": 25.1075469,
        "經度.1": 121.5252705,
        "district": "士林區"
      }
    },
    {
      "type": "Feature",
      "geometry": {
        "type": "Point",
        "coordinates": [
          121.5040798,
          25.0924774
        ]
      },
      "properties": {
        "序號": 205,
        "行政區": "士林區",
        "院所名稱": "和謙耳鼻喉科診所",
        "地址": "臺北市士林區社中街362號",
        "緯度": 25.0924774,
        "經度": 121.5040798,
        "電話": "(02)28165678",
        "緯度.1": 25.0924774,
        "經度.1": 121.5040798,
        "district": "士林區"
      }
    },
    {
      "type": "Feature",
      "geometry": {
        "type": "Point",
        "coordinates": [
          121.5290786,
          25.110809
        ]
      },
      "properties": {
        "序號": 206,
        "行政區": "士林區",
        "院所名稱": "忠誠聯合診所",
        "地址": "臺北市士林區忠誠路二段50巷35號",
        "緯度": 25.110809,
        "經度": 121.5290786,
        "電話": "(02)88661176",
        "緯度.1": 25.110809,
        "經度.1": 121.5290786,
        "district": "士林區"
      }
    },
    {
      "type": "Feature",
      "geometry": {
        "type": "Point",
        "coordinates": [
          121.5210112,
          25.0806319
        ]
      },
      "properties": {
        "序號": 207,
        "行政區": "士林區",
        "院所名稱": "林博通醫師診所",
        "地址": "臺北市士林區通河街60號",
        "緯度": 25.0806319,
        "經度": 121.5210112,
        "電話": "(02)28851148",
        "緯度.1": 25.0806319,
        "經度.1": 121.5210112,
        "district": "士林區"
      }
    },
    {
      "type": "Feature",
      "geometry": {
        "type": "Point",
        "coordinates": [
          121.520791,
          25.1024689
        ]
      },
      "properties": {
        "序號": 208,
        "行政區": "士林區",
        "院所名稱": "邱世昌診所",
        "地址": "臺北市士林區文林路718號",
        "緯度": 25.1024689,
        "經度": 121.520791,
        "電話": "(02)28328088",
        "緯度.1": 25.1024689,
        "經度.1": 121.520791,
        "district": "士林區"
      }
    },
    {
      "type": "Feature",
      "geometry": {
        "type": "Point",
        "coordinates": [
          121.5104206,
          25.0898456
        ]
      },
      "properties": {
        "序號": 209,
        "行政區": "士林區",
        "院所名稱": "科安診所",
        "地址": "臺北市士林區社中街116號",
        "緯度": 25.0898456,
        "經度": 121.5104206,
        "電話": "(02)28110699",
        "緯度.1": 25.0898456,
        "經度.1": 121.5104206,
        "district": "士林區"
      }
    },
    {
      "type": "Feature",
      "geometry": {
        "type": "Point",
        "coordinates": [
          121.5256499,
          25.1101049
        ]
      },
      "properties": {
        "序號": 210,
        "行政區": "士林區",
        "院所名稱": "張虔熙小兒科診所",
        "地址": "臺北市士林區中山北路六段282號",
        "緯度": 25.1101049,
        "經度": 121.5256499,
        "電話": "(02)28361368",
        "緯度.1": 25.1101049,
        "經度.1": 121.5256499,
        "district": "士林區"
      }
    },
    {
      "type": "Feature",
      "geometry": {
        "type": "Point",
        "coordinates": [
          121.5215108,
          25.0884766
        ]
      },
      "properties": {
        "序號": 211,
        "行政區": "士林區",
        "院所名稱": "愛林診所",
        "地址": "臺北市士林區承德路四段222號",
        "緯度": 25.0884766,
        "經度": 121.5215108,
        "電話": "(02)28836881",
        "緯度.1": 25.0884766,
        "經度.1": 121.5215108,
        "district": "士林區"
      }
    },
    {
      "type": "Feature",
      "geometry": {
        "type": "Point",
        "coordinates": [
          121.5092819,
          25.0885199
        ]
      },
      "properties": {
        "序號": 212,
        "行政區": "士林區",
        "院所名稱": "粱耳鼻喉科診所",
        "地址": "臺北市士林區社正路12之1號",
        "緯度": 25.0885199,
        "經度": 121.5092819,
        "電話": "(02)28168456",
        "緯度.1": 25.0885199,
        "經度.1": 121.5092819,
        "district": "士林區"
      }
    },
    {
      "type": "Feature",
      "geometry": {
        "type": "Point",
        "coordinates": [
          121.5099948,
          25.0832436
        ]
      },
      "properties": {
        "序號": 213,
        "行政區": "士林區",
        "院所名稱": "慈田耳鼻喉科診所",
        "地址": "臺北市士林區延平北路五段185號1樓",
        "緯度": 25.0832436,
        "經度": 121.5099948,
        "電話": "(02)28123595",
        "緯度.1": 25.0832436,
        "經度.1": 121.5099948,
        "district": "士林區"
      }
    },
    {
      "type": "Feature",
      "geometry": {
        "type": "Point",
        "coordinates": [
          121.5242199,
          25.096134
        ]
      },